city,state,state_full,country,region,year,census_fips_code,census_population,census_latitude,census_longitude,residential_speed_limit,uuid,people,opportunity_employment,opportunity_k12_education,opportunity_technical_vocational_college,opportunity_higher_education,opportunity,core_services_doctors,core_services_dentists,core_services_hospitals,core_services_pharmacies,core_services_grocery,core_services_social_services,core_services,retail,recreation_parks,recreation_trails,recreation_community_centers,recreation,transit,overall_score,rounded_score,total_low_stress_miles,total_high_stress_miles,pop_size,rank,rank_size,rank_state,rank_country,rank_country_size,rank_state_size,creation_date,filename
Mackinac Island,MI,Michigan,United States,Midwest,2025,2650280,663,45.8601843,-84.6258337,25,1167d4f7-cc26-48b1-8a04-801dfdab08fc,99.44,99.46,100,0,0,99.73,0,0,100,98.56,98.56,0,99.08,100,100,100,0,100,100,99.68,100,125,0,small,1,1,1,1,1,1,2025-03-25T22:54:58.649995Z,MI_Mackinac Island_v2025-03-25.1.csv
Provincetown,MA,Massachusetts,United States,New England,2025,2555535,3466,42.0565192,-70.1784536,20,12b80049-0eec-4973-a634-a2743edf5119,95.21,94.72,97.31,0,0,96.02,95.2,95.52,0,95.09,96.97,96.41,96.01,95.26,96.29,98.82,96.85,97.32,96.85,96.1,96,52.7,5.7,small,2,2,1,2,2,1,2025-03-23T22:17:09.282164Z,MA_Provincetown_v2025-03-23.1.csv
Sauk City,WI,Wisconsin,United States,Midwest,2025,5571650,3500,43.2732719,-89.7324556,25,afa2726e-23e0-4ffe-9ce7-0743668fefb2,90.88,92.94,97.75,0,0,95.35,95.6,0,96.34,97.25,90.15,0,94.2,75.72,85.34,100,0,92.18,0,90.27,90,59.7,6.7,small,3,3,1,3,3,1,2025-03-20T19:02:18.950283Z,WI_Sauk City_v2025-03-20.1.csv
Springdale,UT,Utah,United States,Mountain,2025,4971840,416,37.1816732,-113.0050071,25,dc9c43c7-15cc-4e21-8c1d-2d1cb8b24642,86.79,87.66,93.98,0,0,90.82,0,0,0,0,92.74,0,92.74,84.39,84.21,0,0,84.21,94.73,89.23,89,38.7,3.6,small,4,4,1,4,4,1,2025-03-21T04:22:38.221022Z,UT_Springdale_v2025-03-21.1.csv
Fayette,MO,Missouri,United States,Midwest,2025,2923842,2800,39.1472944,-92.6856693,25,44471e7c-851c-45b8-8077-1bb9075fe46f,92.01,93.31,95.61,0,95.07,94.6,0,0,0,0,93.58,0,93.58,95.61,66.42,0,0,66.42,0,89.11,89,44.4,9.5,small,6,6,1,6,6,1,2025-03-24T23:15:29.000328Z,MO_Fayette_v2025-03-24.1.csv
Murdock,NE,Nebraska,United States,Midwest,2025,3133320,235,40.9261171,-96.2811063,25,a8d87af4-eb3c-4dc6-b3a2-02a3ae28e050,85.25,82.5,100,0,0,91.25,0,0,0,0,0,0,,0,0,0,0,,0,88.68,89,6.5,1.1,small,9,7,1,7,7,1,2025-03-24T22:30:07.975492Z,NE_Murdock_v2025-03-24.1.csv
Washburn,WI,Wisconsin,United States,Midwest,2025,5583525,1858,46.6766515,-90.9012875,25,1ab6b487-a033-4517-aefd-39b13d69b288,88.26,90.12,90.02,0,0,90.07,95.75,91.81,0,91.81,90.35,95.75,93.08,83.32,88.52,0,91.81,89.79,0,89.22,89,65,9.8,small,5,5,2,5,5,2,2025-03-20T19:02:09.574786Z,WI_Washburn_v2025-03-20.1.csv
Paris,IDF,Ile-de-France,France,France,2025,,2731613,48.8575,2.3514,20,2053ff6d-7091-4f41-b0fb-a0edc5c9ed79,84.37,0,89.75,90.17,87.8,89.21,89.84,89.54,90.07,89.98,93.33,89.9,90.75,89.64,88.77,96.88,88.15,91.45,86.7,88.82,89,2039.9,344.6,large,7,1,1,1,1,1,2025-04-16T01:07:51.831696Z,FR_Paris_v2025-04-16.1.csv
Delft,ZH,South Holland,Netherlands,Netherlands,2025,,114127,52.0067,4.3556,19,8323c457-ffbb-4ddc-a782-e58ace4bd743,86.04,0,90.88,85.15,94.59,91.14,90.03,89.46,89.2,90.29,93.33,91.09,90.82,92.63,91.08,94.49,90.75,92.19,77.95,88.71,89,413.9,82.5,medium,8,1,1,1,1,1,2025-04-24T23:50:19.016946Z,NL_Delft_v2025-04-24.1.csv
The Hague,ZH,South Holland,Netherlands,Netherlands,2025,,601291,52.0657,4.3126,20,3573d6d5-09de-4333-9e6b-a8596a0fe29f,87.82,0,90.58,84.37,82.6,87.17,88.99,89.36,88.51,90.33,93.3,89.78,90.26,90.87,90.9,98.57,87.22,92.66,82.86,88.62,89,1350.3,394.7,large,10,2,2,2,1,1,2025-04-23T16:13:27.972025Z,NL_The Hague_v2025-04-23.1.csv
Fort Yates,ND,North Dakota,United States,Midwest,2025,3827860,142,46.0865941,-100.630078,25,582fa734-7277-477e-8333-d8adaed6b173,89.05,88.39,0,0,0,88.39,0,0,100,0,0,0,100,0,70.29,0,0,70.29,0,87.97,88,4,0,small,11,8,1,8,8,1,2025-03-24T23:04:24.705965Z,ND_Fort Yates_v2025-03-24.1.csv
Crested Butte,CO,Colorado,United States,Mountain,2025,818310,1436,38.8677899,-106.9772606,30,cd57945a-b7d5-4e10-9440-929266769b62,82.01,86.44,88.08,0,0,87.26,88.08,88.08,0,0,88.08,0,88.08,88.08,85.23,97.8,88.08,90.34,0,87.21,87,30.5,1.1,small,12,9,1,9,9,1,2025-03-15T13:52:48.249232Z,CO_Crested Butte_v2025-03-15.1.csv
Brussels,,Brussels-Capital,Belgium,Belgium,2025,,511838,50.8503,4.3517,25,327de11c-baa1-4a41-81a4-f55dc1ef839e,82.15,0,89.56,89.99,86.04,88.54,88.37,87.52,85.47,89.12,92.13,89.69,88.92,87.38,88.74,87.56,89.49,88.51,86.76,87.21,87,508.1,88.1,large,12,3,,1,1,,2025-04-22T01:17:02.799311Z,BE_Brussels_v2025-04-22.1.csv
Lyon,ARA,Auvergne-Rhone-Alpes,France,France,2025,,612000,45.764,4.8357,25,1a18f591-c692-4838-8f15-d3fa03108070,81.4,0,88.9,87.03,84.75,87.34,88.85,84.93,87.56,88.08,92.45,88.99,89.04,88.91,88.18,87.15,87.5,87.65,83.45,86.49,86,754,121.3,large,14,4,1,2,2,1,2025-04-22T01:59:16.385353Z,FR_Lyon_v2025-04-22.1.csv
Nijmegen,GE,Gelderland,Netherlands,Netherlands,2025,,184636,51.8449,5.8428,19,e872734c-6aa9-458f-8093-f471787ddbdb,84.24,0,89.07,86.39,77.3,85.04,85.07,86.62,81.43,87.11,91.83,85.76,86.49,87.93,90.12,96.54,86.83,91.54,80.07,85.87,86,840.3,205.9,medium,15,2,1,3,2,1,2025-04-24T23:50:50.050488Z,NL_Nijmegen_v2025-04-24.1.csv
Eindhoven,NB,North Brabant,Netherlands,Netherlands,2025,,246848,51.4231,5.4623,20,3d27c23b-9ba7-446c-b7f3-d8b759bb4f46,85.01,0,89.02,80.4,88.58,87.56,84.38,78.91,85.4,86.99,91.19,79.11,85.21,88.48,89.57,96.06,83.98,90.44,78.07,85.85,86,1307.1,303.7,medium,16,3,1,4,3,1,2025-04-23T16:11:19.961938Z,NL_Eindhoven_v2025-04-23.1.csv
Perrysville,OH,Ohio,United States,Midwest,2025,3962190,833,40.6584017,-82.3143798,25,af99788a-d478-4dd1-b5d0-bd175c4b1d3d,78.33,80.16,86.67,0,0,83.42,0,0,0,0,0,0,,0,93.75,0,0,93.75,0,84.99,85,9.6,3.1,small,22,10,1,10,10,1,2025-03-22T04:02:59.315902Z,OH_Perrysville_v2025-03-22.1.csv
Utrecht,UT,Utrecht,Netherlands,Netherlands,2025,,398519,52.0907,5.1214,20,47b7cc41-c156-4bc7-aa9c-bfdc9936115f,81.09,0,87.69,75.17,87.32,85.65,85.78,84.58,82.97,86.4,89.85,86.51,86.29,86.89,88.96,94.13,83.78,89.47,81.51,85.23,85,1304,469.3,large,17,5,1,5,2,1,2025-04-23T16:13:45.191321Z,NL_Utrecht_v2025-04-23.1.csv
Almere,FL,Flevoland,Netherlands,Netherlands,2025,,236687,52.3508,5.2647,20,efde6bf0-abfe-4c58-bc29-7c6aa6873136,84.22,0,85.09,80.3,84.25,84.09,81.9,80.11,83.58,82.77,87.85,77.14,82.92,86.16,90.46,97.97,83.13,91.26,83.22,85.13,85,1711.5,376.6,medium,18,4,1,6,4,1,2025-04-23T16:10:43.418907Z,NL_Almere_v2025-04-23.1.csv
Munich,,Bayern,Germany,Germany,2025,,1669590,48.1351,11.582,25,6a78df69-99d2-45e7-9ab4-6cef9d56c116,82.79,0,87.43,79.41,73.68,81.97,85.81,84.33,80.71,86,91.02,86.56,86.08,87.72,88.32,97.39,83.63,90.32,82.39,85.09,85,3969.1,874.2,large,19,6,,1,1,,2025-04-22T07:22:39.436468Z,DE_Munich_v2025-04-22.1.csv
Leuven,,Flemish Brabant,Belgium,Belgium,2025,,111397,50.8798,4.7005,25,cf61b102-5d83-48d0-8eff-aaca39529f28,83.32,0,88.19,69.35,88.96,85.53,86.73,81.31,82.59,87.12,89.81,88.71,86.47,86.28,88.8,95.2,83.43,89.7,78.48,85.07,85,612.6,108.5,medium,20,5,,2,1,,2025-04-22T01:19:23.086829Z,BE_Leuven_v2025-04-22.1.csv
Bolzano,,South Tyrol,Italy,Italy,2025,,111709,46.4949,11.3403,31,b8c1ce42-aac6-44f8-89c7-c177ed50490d,86.37,0,91.8,57.14,91.26,86.3,85.29,75.86,64.3,91.33,92.92,89.42,83.28,89.98,89.98,97.59,87.2,91.95,72.35,85.01,85,278.9,158.8,medium,21,6,,1,1,,2025-04-24T23:48:45.653208Z,IT_Bolzano_v2025-04-24.1.csv
Blue Diamond,NV,Nevada,United States,Mountain,2025,3205700,270,36.0399488,-115.4127985,25,c8d72b8b-9755-42ce-9ead-51500174dc69,91.79,89.91,73.27,0,0,81.59,0,0,0,0,0,0,,89.03,74.34,73.36,0,73.88,0,83.88,84,111.5,12.9,small,25,11,1,11,11,1,2025-03-24T19:06:06.315139Z,NV_Blue Diamond_v2025-03-24.1.csv
Amsterdam,NH,North Holland,Netherlands,Netherlands,2025,,867612,52.3676,4.9041,20,2f54fe53-25d8-411a-9b9d-8307451db9a0,82.1,0,84.25,85.26,83.66,84.22,82.85,83.14,87.53,83.15,85.95,82.45,84.56,86.3,87.88,96.17,81.19,89.11,80.16,84.41,84,2631.8,481.4,large,23,7,1,7,3,1,2025-04-23T16:11:00.903198Z,NL_Amsterdam_v2025-04-23.1.csv
Toulouse,OCC,Occitania,France,France,2025,,519553,43.6048,1.4428,25,cfb45f3a-378e-42cc-8aed-e8d1109216c2,81.57,0,87.76,84.56,74.26,83.11,84.47,77.5,76.24,85.69,90.59,86.93,84.15,87.45,87.53,89.37,82.91,87.02,82.89,84.29,84,1724.5,289.6,large,24,8,1,3,3,1,2025-04-25T21:50:22.621828Z,FR_Toulouse_v2025-04-25.1.csv
Sainte-Julie,QC,Quebec,Canada,Canada,2025,,39306,45.5925,-73.3427,25,a961aa0b-b46e-48b3-9956-0620f2055445,82.68,0,87.04,77.07,0,84.82,75.04,89.55,60.9,78.34,84.75,89.31,78.56,79.43,87.44,91.17,84.66,88.05,90.76,83.81,84,228.7,73.2,small,26,12,1,1,1,1,2025-04-21T19:30:05.712349Z,CA_Sainte-Julie_v2025-04-21.1.csv
Hilversum,NH,North Holland,Netherlands,Netherlands,2025,,102193,52.2233,5.1764,19,59297d59-39e8-4d70-9438-e3f61dfc99c7,81.58,0,86.1,89.25,90.83,88.04,80.42,77.29,77.6,81.93,87.82,78.92,81.32,88.12,87.92,95.46,68.28,85.65,77.41,83.79,84,615.4,126.8,medium,27,7,2,8,5,1,2025-04-24T23:50:04.292155Z,NL_Hilversum_v2025-04-24.1.csv
Cambridge,,Cambridgeshire,England,England,2025,,151138,52.2034,0.137150455,30,72d61250-96db-451b-8b9c-897e8e57feab,78.8,0,86.34,82.22,78.2,83.2,85.08,85.82,81.45,83.33,90.44,85.92,85.72,86.41,86.4,92.1,81.29,87.12,79.52,83.56,84,421.2,161.6,medium,28,8,,1,1,,2025-04-16T23:07:48.738779Z,GB_Cambridge_v2025-04-16.1.csv
Hackney,,Greater London,England,England,2025,,428950,51.4641,0.1327,20,69751134-3468-45b2-97bf-8a3cd558ccec,78.88,0,86.66,80.3,76.45,82.54,85.02,84.55,72.98,85.13,91.04,86.81,84.35,86.6,87.43,79.68,87.35,84.7,80.11,82.92,83,382.9,35.2,large,29,9,,2,1,,2025-04-18T00:32:31.050522Z,GB_Hackney_v2025-04-18.1.csv
Bologna,,Emilia-Romagna,Italy,Italy,2025,,394608,44.4949,11.3426,25,48b11419-f9aa-4aec-b7d9-2f5b50aa48fe,81.68,0,86.95,66.16,73.11,79.49,83.27,73.84,82.56,87.71,90.19,84.96,84.61,84.75,87.66,89.68,78.68,86.12,81.3,82.9,83,984.1,327.4,large,30,10,,2,1,,2025-04-22T19:46:29.325841Z,IT_Bologna_v2025-04-22.1.csv
Hannover,,Lower Saxony,Germany,Germany,2025,,578042,52.3759,9.732,31,0878117a-135a-48fd-b576-cf49324311ba,79.89,0,86.32,80.05,74.5,81.72,83.45,82.06,75.54,84.05,89.13,85.77,83.56,86.12,87.01,94.47,80.88,88.09,77.89,82.85,83,2186.1,552.3,large,31,11,,2,2,,2025-04-24T23:44:58.902551Z,DE_Hannover_v2025-04-24.1.csv
Bromont,QC,Quebec,Canada,Canada,2025,,19519,45.2852,-72.6872,25,1adf63eb-4b26-47e5-a9cc-d6c9977b9f7e,84.03,0,78.82,0,0,78.82,84.9,92.39,0,92.39,87.4,0,88.17,87.54,91.67,81.58,80.64,85.38,72.6,82.83,83,378.5,104.8,small,32,13,2,2,2,2,2025-04-21T04:12:52.924374Z,CA_Bromont_v2025-04-21.1.csv
Groningen,GR,Groningen,Netherlands,Netherlands,2025,,209325,53.2194,6.5665,20,2d9c8a13-f399-4fb8-b70c-ec366a866308,80.88,0,85.06,84.22,77.88,82.72,78.9,82.37,75.7,80.55,86.42,84.01,81.42,85.31,86.44,92.69,82.03,87.53,78.18,82.61,83,912.2,334.1,medium,33,9,1,9,6,1,2025-04-23T16:14:53.665519Z,NL_Groningen_v2025-04-23.1.csv
Havre,MT,Montana,United States,Mountain,2025,3035050,9333,48.5419114,-109.6779564,25,c86e47e1-8215-4547-bed0-68ac6391e9c6,89.69,86.16,89.46,0,95.66,89.55,84.91,0,91.41,57.55,84.04,0,82.71,57.55,90.13,0,0,90.13,76.73,81.57,82,102.2,10.8,small,40,16,1,13,13,1,2025-03-24T23:53:41.686739Z,MT_Havre_v2025-03-24.1.csv
Watford City,ND,North Dakota,United States,Midwest,2025,3883860,6016,47.8014923,-103.2667311,25,fe73c8cb-0419-421f-a556-4db9bc6bddef,82.29,76.07,86.18,0,0,81.13,0,0,86.18,0,0,0,86.18,0,76.33,0,0,76.33,0,81.79,82,92.7,32.3,small,37,15,2,12,12,2,2025-03-24T23:04:25.190617Z,ND_Watford City_v2025-03-24.1.csv
Chambly,QC,Quebec,Canada,Canada,2025,,41821,45.4392,-73.2902,25,1f9be0df-5205-4c98-9deb-81b66c18de42,77.85,0,83.98,0,0,83.98,70.37,79.89,0,72.38,85.29,86.22,79.45,84.68,87.03,81.45,90.35,85.91,82.86,82.38,82,201.8,53.3,small,34,14,3,3,3,3,2025-04-21T18:25:18.304930Z,CA_Chambly_v2025-04-21.1.csv
Islington,,Greater London,England,England,2025,,350860,51.5434,-0.107,20,0e22ead8-dafc-4822-8d66-20f67108498d,76.85,0,85.22,83.1,82.09,83.93,82.83,83.24,71.48,84.16,89.75,83.8,82.61,85.06,86.03,82.79,85.69,84.81,78.39,82.07,82,277.8,31.2,large,35,12,,3,2,,2025-04-18T04:05:26.146287Z,GB_Islington_v2025-04-18.1.csv
Valencia,,Valencia,Spain,Spain,2025,,912397,39.4738,0.3756,20,bd44f7fd-82f6-4852-ace0-6bae156b797f,76.63,0,85.56,75.43,81.07,82.62,83.25,77.37,80.28,84.85,89.57,83.29,83.81,84.04,86.15,84.51,79.14,83.82,80.58,82.05,82,995.8,379,large,36,13,,1,1,,2025-04-21T20:07:46.053485Z,ES_Valencia_v2025-04-21.1.csv
Strasbourg,GES,Grand Est,France,France,2025,,299877,48.5734,7.7521,25,4bb4b095-43c1-48f1-80cc-7bf714bf06c0,78.28,0,84.86,82.08,78.69,82.53,83.34,78.13,83.02,83.95,87.46,84.57,84.03,83.78,85.82,97.11,80.47,88.43,72.14,81.71,82,777,265.2,medium,38,10,1,4,1,1,2025-04-25T21:50:06.257424Z,FR_Strasbourg_v2025-04-25.1.csv
Newham,,Greater London,England,England,2025,,469231,51.5309,0.0318,20,7973bb25-812c-4442-ab77-1969824b4138,76.34,0,86.32,85.06,82.1,84.83,85.49,83.82,53.54,85.56,90.88,86.18,80.39,85.45,85.44,79.09,84.91,83.09,78.99,81.62,82,585,70.9,large,39,14,,4,3,,2025-04-18T14:57:37.465894Z,GB_Newham_v2025-04-18.1.csv
Sewanee,TN,Tennessee,United States,South,2025,4767140,3000,35.1978798,-85.9214758,25,e917a170-bdb9-4e4a-98d8-c37623b7aa34,84.28,84.6,63.42,88.56,88.56,78.38,0,0,90.76,0,0,0,90.76,0,88.27,86.72,6.49,67.28,0,80.8,81,87.9,5.7,small,42,17,1,15,14,1,2025-03-21T17:25:26.713478Z,TN_Sewanee_v2025-03-21.1.csv
Woodland,MS,Mississippi,United States,South,2025,2881000,146,33.779675,-89.05069,25,b26fce2f-4c9a-43ee-a0ab-3ccc465a4ce9,80.21,79.8,82.32,0,0,81.06,0,0,0,0,0,0,,0,0,0,0,,0,80.7,81,4.6,2.5,small,44,19,1,17,16,1,2025-03-25T21:39:18.037413Z,MS_Woodland_v2025-03-25.1.csv
Davis,CA,California,United States,Pacific,2025,618100,66801,38.556147,-121.7377925,25,59f8bf7d-5879-4f76-bafc-d0e3190973fb,87.28,80.24,88.56,77.13,79.78,82.75,72.2,81.21,77.94,73.24,89.49,63.18,77.32,82.03,89.95,99.89,67.47,87.81,68.68,80.88,81,440.7,58.6,medium,41,11,1,14,1,1,2025-03-13T18:52:33.269301Z,CA_Davis_v2025-03-13.1.csv
Ashland,WI,Wisconsin,United States,Midwest,2025,5503225,7884,46.5817602,-90.8718979,25,6c233a89-8eb3-4d58-9b20-88f8f6846ae9,82.53,78.9,82.11,69.05,92.79,81.82,76.15,83.23,84.75,87.96,88.06,86.12,84.23,83.63,83.61,90.95,78.13,84.81,65.68,80.71,81,159.4,44,small,43,18,3,16,15,3,2025-03-20T19:02:12.580352Z,WI_Ashland_v2025-03-20.1.csv
Jackson,WY,Wyoming,United States,Mountain,2025,5640120,10746,43.4719358,-110.7752672,25,9e4e5cea-9d70-4768-b79a-28fb011a7b9f,90,88.99,55.95,0,0,72.47,80.93,0,83.95,6.52,72.26,89.57,72.37,80.56,92.46,79.16,0,86.25,80.95,79.63,80,107.5,17.4,small,49,21,1,19,18,1,2025-03-20T17:01:18.380311Z,WY_Jackson_v2025-03-20.1.csv
Winnett,MT,Montana,United States,Mountain,2025,3081100,173,47.0043009,-108.3466118,25,fdfd6aea-28ab-41e2-9471-b8bb131ad932,87.12,89.09,90.45,0,0,89.77,0,0,0,0,90.45,0,90.45,0,47.94,0,0,47.94,0,80.43,80,9.4,3.9,small,45,20,2,18,17,2,2025-03-24T23:53:41.257677Z,MT_Winnett_v2025-03-24.1.csv
Waltham Forest,,Greater London,England,England,2025,,352799,51.628,0.021,20,36a699fe-3dc5-407f-8649-d4aabc8f005b,73.33,0,85.25,81.15,80.6,83.19,83.41,81.47,62.61,83.02,89.07,83.12,80.39,85.56,84.84,83.91,80.61,83.46,74.93,80.31,80,546.5,68.2,large,46,15,,5,4,,2025-04-19T15:28:08.270821Z,GB_Waltham Forest_v2025-04-19.1.csv
Rijswijk,ZH,South Holland,Netherlands,Netherlands,2025,,90673,52.0377,4.322,20,eefbe8af-0573-4688-a0a9-d8fb75ae6ed3,78.95,0,87.57,75.12,51.02,74.41,85.42,85.92,49.36,85.75,91.37,85.79,79.83,88.43,87.89,100,78.53,89.79,71.06,80.08,80,215.6,70.1,medium,47,12,3,10,7,2,2025-04-23T16:12:49.080832Z,NL_Rijswijk_v2025-04-23.1.csv
Ghent,,East Flanders,Belgium,Belgium,2025,,290049,51.0543,3.7174,25,cdf11e98-466d-4b52-889f-9c27535741ff,77.33,0,79.76,80.62,87.03,82.13,79.24,80.19,79.08,78.57,82.79,78.59,80.03,78.57,83.35,92.07,77.19,84.86,74.75,79.76,80,1549.7,311.5,medium,48,13,,3,2,,2025-04-22T01:17:52.833385Z,BE_Ghent_v2025-04-22.1.csv
Antwerp,,Antwerp,Belgium,Belgium,2025,,577496,51.2194,4.4025,25,22f2256d-5f7d-48b1-864c-e40fb086f4a7,76.49,0,78.27,82.1,86.87,81.51,75.26,70.88,84.74,78.35,83.99,79.49,79.84,79.26,78.95,95.44,74.13,83.52,76.32,79.61,80,1880.5,455.8,large,50,16,,4,2,,2025-04-22T01:16:35.508506Z,BE_Antwerp_v2025-04-22.1.csv
Southwark,,Greater London,England,England,2025,,445700,51.4784,-0.0692,20,fb8b98a9-a2d2-4b3a-b679-8720fa8089b1,72.12,0,84.21,76.37,82.41,82.45,81.94,81.61,72.5,82.37,88.47,81.73,81.66,83.18,83.89,72.79,81.49,79.41,75.01,79.28,79,528,62.4,large,51,17,,6,5,,2025-04-18T22:41:12.198675Z,GB_Southwark_v2025-04-18.1.csv
Münster,,North Rhine-Westphalia,Germany,Germany,2025,,346490,51.9607,7.6261,31,2f2eb32e-952b-4de7-849e-58160f1d4ddf,77.08,0,82.35,69.92,78.46,79.24,80.92,76.39,78.27,78.95,84.54,80.81,80.63,80.29,84.76,91.87,74.36,84.65,73.29,79.27,79,1821.5,712.4,large,52,18,,3,3,,2025-04-24T23:45:35.114328Z,DE_Münster_v2025-04-24.1.csv
Barcelona,,Catalonia,Spain,Spain,2025,,1792104,41.3874,2.1686,20,1c93d7ec-dbce-43b6-89bb-3f466c58bb99,72.24,0,81.21,76.59,77.78,79.44,79.52,73.56,69.26,81.18,85.79,79.33,78.58,83.13,81.72,80.55,79.86,80.85,79.54,78.97,79,1327.3,429.4,large,53,19,,2,2,,2025-04-21T20:05:14.739000Z,ES_Barcelona_v2025-04-21.1.csv
Hasselt,,Limburg,Belgium,Belgium,2025,,86301,50.9167,5.3333,25,8496d26a-6727-4971-b6aa-3187899ecb15,76.33,0,83.11,82.07,80.08,82.02,63.74,65.62,80.85,79.61,85.04,82.94,77.14,81.87,84.01,92.67,83.59,86.94,69.12,78.97,79,681.1,240.8,medium,53,14,,5,3,,2025-04-22T01:18:12.088848Z,BE_Hasselt_v2025-04-22.1.csv
Westminster,,Greater London,England,England,2025,,371234,51.5206,-0.1645,20,0084034f-8a6d-47d3-860b-29a4584ae8f9,66.43,0,82.69,80.52,79.35,81.33,82.34,82.23,82.32,82.98,88.16,82.99,83.94,82.19,82.67,74.8,82.2,79.8,77.42,78.93,79,373.9,65.7,large,55,20,,7,6,,2025-04-19T15:29:03.479765Z,GB_Westminster_v2025-04-19.1.csv
Augsburg,,Bavaria,Germany,Germany,2025,,322207,48.3705,10.8978,31,e648eb38-89b3-4fed-ae9c-d5dbf59416c7,76.7,0,83.29,63.68,70.34,76.29,83.13,81.66,73.94,81.49,87.06,83.1,81.96,84.3,84.78,91.42,80.08,85.93,67.78,78.86,79,1369.3,297.6,large,56,21,,4,4,,2025-04-25T23:04:59.898698Z,DE_Augsburg_v2025-04-25.1.csv
Edinburgh,,Edinburgh,Scotland,Scotland,2025,,509072,55.9533,3.1883,20,aa510fd1-bb9f-4869-98f2-66eb1a41eff7,74.9,0,83.93,69.62,73.55,78.53,81.86,80.21,75.86,81.47,86.87,83.59,81.97,83.84,84.32,80.79,79.3,81.83,69.35,78.59,79,2228.9,443.8,large,57,22,,1,1,,2025-04-22T07:26:09.235315Z,GB_Edinburgh_v2025-04-22.1.csv
Oxford,,Oxfordshire,England,England,2025,,176096,51.7561,-1.243470838,30,25836761-e23f-4556-954d-2510fe8c50b2,77,0,85.67,82.31,78.29,82.88,81.15,79.6,69.48,82.02,88.72,82.82,80.89,84.68,85.43,86.77,82.24,85.1,58.34,78.52,79,504.6,89.3,medium,58,15,,8,2,,2025-04-18T15:57:34.600204Z,GB_Oxford_v2025-04-18.1.csv
Carroll,IA,Iowa,United States,Midwest,2025,1911080,10261,42.0703206,-94.8645971,25,112598d6-230b-4cdb-b125-42bc291574d7,85.79,80.74,78.63,89.5,0,80.91,55.75,91.44,86.22,90.42,71.8,70.41,75.09,62.53,86.15,88.59,0,87.29,0,78.28,78,137.6,23.8,small,59,22,1,20,19,1,2025-03-26T18:53:54.571463Z,IA_Carroll_v2025-03-26.1.csv
Tower Hamlets,,Greater London,England,England,2025,,405807,51.5186,-0.0406,20,901503e8-8f17-47a7-9cde-a2f51bf1342d,67.82,0,82.95,79.99,79.19,81.34,82.19,81.33,71.13,81.36,87.9,82.56,81.29,82.21,83,68.23,83.7,78.01,76.36,78.19,78,382.6,58.8,large,60,23,,9,7,,2025-04-18T22:47:08.710994Z,GB_Tower Hamlets_v2025-04-18.1.csv
Chambéry,ARA,Auvergne-Rhone-Alpes,France,France,2025,,68312,45.5646,5.9178,25,f1e6fc5f-1dc4-4a64-9aff-c6581815493d,70.35,0,80.09,70.75,82.36,79.35,79.34,74.33,65.75,81.85,88.33,80.36,78.77,81.45,80.58,77.7,71.26,77.24,79.62,77.92,78,243.3,76.1,medium,61,16,2,5,2,1,2025-04-22T01:59:00.442175Z,FR_Chambéry_v2025-04-22.1.csv
Berlin,,Berlin,Germany,Germany,2025,,3541606,52.52,13.405,25,7ab11772-328e-4188-ab95-bc5c36e2c187,72.33,0,83.46,68.82,66.4,75.96,80.33,75.51,68.07,79.98,87.82,82.32,79.53,83.08,84.11,0,78.9,82.11,74.34,77.88,78,8291.3,1425.7,large,62,24,,5,5,,2025-04-22T07:22:08.108097Z,DE_Berlin_v2025-04-22.1.csv
Milton Keynes,,Buckinghamshire,England,England,2025,,299880,52.0436,-0.7547,20,ae342937-f34c-42c0-9fd6-ae1cfde297db,79.4,0,85.43,68.92,75.72,79.9,77.46,73,67.76,80.9,85.33,82.41,78.13,82.48,85.97,89.62,79.75,85.69,60.72,77.85,78,1809.4,681.4,medium,63,17,,10,3,,2025-04-18T14:56:12.675933Z,GB_Milton Keynes_v2025-04-18.1.csv
Squamish,BC,British Columbia,Canada,Canada,2025,,25384,49.7016,-123.1558,25,ba6f21e2-9b50-4416-a3b1-b1d10377e3ce,85.23,0,74.24,0,59.03,68.71,57.93,0,82.52,83,89.43,75.96,77.94,83.33,88.76,82.15,60.42,79.36,73.73,77.58,78,548.6,72.3,small,64,23,1,4,4,1,2025-04-21T03:30:59.582656Z,CA_Squamish_v2025-04-21.1.csv
Brighton and Hove,,West Sussex,England,England,2025,,305293,50.8352,0.1261,30,b8d00f25-01c3-4c76-9666-855e85e95c59,70.28,0,82.68,78.58,76.82,80.25,76.04,68.83,72.47,79.61,85.46,78.52,77.69,82.7,82.8,77.98,71.06,78.18,75.38,77.57,78,692.8,292.8,large,65,25,,11,8,,2025-04-19T15:41:47.663117Z,GB_Brighton and Hove_v2025-04-19.1.csv
Lewisham,,Greater London,England,England,2025,,398381,51.4569,-0.016,20,2c2792ca-e8dc-40b5-85ca-4fd096be7fcf,69.48,0,82.99,77.57,68.46,77.69,78.38,78.82,58.32,81.91,88.45,80.33,77.58,81.63,82.93,0,80.07,81.83,76.68,77.5,78,598.9,51.1,large,66,26,,12,9,,2025-04-18T14:46:33.446165Z,GB_Lewisham_v2025-04-18.1.csv
Hailey,ID,Idaho,United States,Mountain,2025,1634390,9439,43.5126736,-114.2994991,20,f722a601-957b-49e0-98c7-5a2d71e5ff52,83.03,81.53,72.24,0,0,76.89,0,88.17,0,0,65.24,0,71.79,66.12,88.51,95.2,0,91.63,0,77.47,77,123.8,11.3,small,67,24,1,21,20,1,2025-03-26T19:11:54.368474Z,ID_Hailey_v2025-03-26.1.csv
St. Marys,OH,Ohio,United States,Midwest,2025,3969680,8319,40.5475655,-84.392335,25,e05908b6-4cf4-4689-a3ab-1e4f367f2137,80.7,76.08,57.32,0,0,66.7,0,86.51,80.02,0,57.26,77.66,72.31,80.2,82.22,100,0,90.52,0,77.08,77,98.1,21.2,small,72,26,2,23,22,2,2025-03-22T04:02:49.620682Z,OH_St. Marys_v2025-03-22.1.csv
Shorewood,WI,Wisconsin,United States,Midwest,2025,5573725,13682,43.0913382,-87.8866541,25,60a75c7a-7d2c-44d0-80e1-18e19d5b0654,83.54,76.76,82.16,0,91.32,73.89,63.8,98.36,27.6,81.03,71.21,86.74,67.03,82.58,86.59,100,55.41,83.49,0,77.21,77,75.3,6.9,small,70,25,4,22,21,4,2025-03-20T19:02:10.121188Z,WI_Shorewood_v2025-03-20.1.csv
Bremen,,Bremen,Germany,Germany,2025,,617011,53.0793,8.8017,31,c8f16b7b-0c40-42bd-9f37-3a30d2152141,75.4,0,79.82,74.26,69.6,75.82,77.77,74.22,74.43,77.08,82.49,80.14,78.21,82.07,82.21,89.75,72.05,82.31,70.71,77.38,77,2724.8,596.7,large,68,27,,6,6,,2025-04-24T23:45:52.425927Z,DE_Bremen_v2025-04-24.1.csv
Exeter,,Devon,England,England,2025,,127252,50.726,3.5275,30,7cca7ac7-626e-489f-a43c-e16ea87335fe,70.62,0,81.7,78.37,72.43,78.34,76.04,71.68,73.58,75.93,84.31,66.89,75.8,80.34,83.76,88.04,73.47,82.69,75.72,77.23,77,448,276.2,medium,69,18,,13,4,,2025-04-19T15:32:27.285834Z,GB_Exeter_v2025-04-19.1.csv
Camden,,Greater London,England,England,2025,,354947,51.5364,-0.1406,20,ee70d641-52b4-45e4-8b1c-b00c1d7c1821,71.18,0,83.98,83.63,73.77,80.78,82.98,83.83,75.95,83.18,89,83.78,83.3,82.39,84.2,25.83,83.51,63.6,78.41,77.15,77,351.8,35.2,large,71,28,,14,10,,2025-04-17T05:06:45.674223Z,GB_Camden_v2025-04-17.1.csv
Victoria,BC,British Columbia,Canada,Canada,2025,,109596,48.4284,-123.3656,20,8d6cee99-e1da-40eb-a5de-6134e69b5729,76.9,0,82.69,76.41,38.21,68.04,83.33,75.35,85.97,84.31,88.65,85.97,84.88,86.73,85.67,86.7,81.99,85.11,60.11,76.91,77,277.2,73.4,medium,73,19,2,5,1,1,2025-04-20T17:46:05.856328Z,CA_Victoria_v2025-04-20.1.csv
Deventer,OV,Overijissel,Netherlands,Netherlands,2025,,109807,52.2551,6.1552,19,86e9da77-008f-4bb7-816b-daa075084131,71.53,0,73,83.53,84.93,78.29,71.28,80.03,67.86,78.37,79.27,75.3,74.78,79.14,75.41,81.86,73.07,77.08,79.95,76.77,77,836,377.9,medium,74,20,1,11,8,1,2025-04-24T23:50:34.825929Z,NL_Deventer_v2025-04-24.1.csv
City of London,,Greater London,England,England,2025,,34068,51.5099,-0.1181,20,91d85275-5bf0-46ec-a9fd-246222ff38e5,44.96,0,79.18,81.59,86.35,81.76,80.04,82.83,78.77,79.72,85.45,78.65,81.18,82.42,79.28,100,77.85,86.17,79.62,76.56,77,68.7,7.9,small,75,27,,15,1,,2025-04-17T05:59:05.175605Z,GB_City of London_v2025-04-17.1.csv
Emerald Isle,NC,North Carolina,United States,South,2025,3721160,3915,34.6644257,-77.0313681,35,9b92f1fc-dfab-4fe9-a669-612c237d4cd6,76.95,73.14,0,0,0,73.14,88.95,66,0,83.74,75.14,0,79.31,70.43,69.05,91.52,88.87,81.87,0,76.33,76,126.7,50.3,small,76,28,1,24,23,1,2025-03-25T00:15:04.025439Z,NC_Emerald Isle_v2025-03-25.1.csv
Tabor,SD,South Dakota,United States,Midwest,2025,4662820,346,42.9476723,-97.6593899,25,2c249bd2-48f9-4759-8156-423ab3e67e69,71.96,79.56,0,0,0,79.56,0,0,0,0,0,0,,0,0,0,0,,0,76.3,76,6.7,4.8,small,78,29,1,25,24,1,2025-03-22T01:40:11.284273Z,SD_Tabor_v2025-03-22.1.csv
Big Sky,MT,Montana,United States,Mountain,2025,3006325,2388,45.2564346,-111.3320015,25,012a1aba-c4b6-4f94-88f5-3ec90b15a103,80.27,79.37,97.07,0,0,88.22,77.55,0,79.57,0,64.07,0,72.99,73.48,70.89,78.59,77.02,75.12,63,76.02,76,582.2,55.8,small,82,30,3,26,25,3,2025-03-24T23:53:41.859012Z,MT_Big Sky_v2025-03-24.1.csv
Zwolle,OV,Overijissel,Netherlands,Netherlands,2025,,134720,52.5168,6.083,20,2bce0e42-3c5c-4ec6-b8f9-b7e5be216f5c,76.24,0,76.23,76.52,80.16,77.48,77.87,80.21,68.73,77.81,81.36,77.54,77.09,80.33,83.81,81.33,74.09,80.51,65.69,76.33,76,832.4,405,medium,76,21,2,12,9,2,2025-04-23T16:14:24.212141Z,NL_Zwolle_v2025-04-23.1.csv
Bruges,,West Flanders,Belgium,Belgium,2025,,127829,51.2167,3.2333,25,c5888407-6b9b-40a3-95d5-8e09c93ada79,73.15,0,75.89,85.05,82.68,79.39,70.28,68.2,81.15,74.39,78.3,79.14,75.99,75.02,80.43,87.27,70.13,80.25,72.23,76.17,76,980.9,308,medium,79,22,,6,4,,2025-04-22T01:16:49.300310Z,BE_Bruges_v2025-04-22.1.csv
Bordeaux,NAQ,Nouvelle-Aquitaine,France,France,2025,,307495,44.8416,0.5811,25,2a9f84f0-e86a-4c46-a49b-76e7429fcd03,67.81,0,81.32,79.27,77.99,79.98,77.77,73.66,77.53,81.59,87.1,82.07,80.67,82.01,81.52,55.94,80.19,72.23,71.09,76.1,76,575.7,159.6,large,80,29,1,6,4,1,2025-04-25T21:49:10.333963Z,FR_Bordeaux_v2025-04-25.1.csv
Hammersmith and Fulham,,Greater London,England,England,2025,,291144,51.4865,-0.2124,20,3e72c14e-b01a-49fc-9353-4f77bf4a914a,68.59,0,82.83,77.81,82.42,81.93,82.28,81.99,79.72,81.72,88.47,81.2,83.07,83.55,83.74,8.41,81.7,56.86,77.85,76.03,76,277.2,25.1,medium,81,23,,16,5,,2025-04-18T00:33:01.910804Z,GB_Hammersmith and Fulham_v2025-04-18.1.csv
Sevilla,,Andalucia,Spain,Spain,2025,,703878,37.3891,5.9845,20,d6432753-32d3-40cf-977e-fd9cc2839302,69.67,0,81.12,76.64,67.94,76.38,77.13,70.83,77.5,81.91,86.14,74.48,78.91,78.26,82.73,79.62,74.39,79.56,72.04,75.99,76,1053,414.8,large,83,30,,3,3,,2025-04-21T20:04:48.032364Z,ES_Sevilla_v2025-04-21.1.csv
Mechelen,,Antwerp,Belgium,Belgium,2025,,100920,51.0257,4.4776,31,c11cdcbe-fd8b-4e6f-8267-66e03fb7b22c,72.77,0,82.36,76.21,79.1,80.41,72.63,61.67,57.98,76.91,80.96,77.99,71.92,78.06,84.13,84.51,74,81.73,70.66,75.95,76,425.5,214.7,medium,84,24,,7,5,,2025-04-24T23:33:20.701019Z,BE_Mechelen_v2025-04-24.1.csv
Oberlin,OH,Ohio,United States,Midwest,2025,3957834,8054,41.2860627,-82.2195648,25,c33f67f2-98d1-41bf-9b3c-401d3ab140fc,79.77,82.55,76.16,93.13,0,81.08,75.1,52.47,75.24,0,52.37,86.11,68.14,71.15,83.8,87.52,41.77,74.59,0,74.91,75,67.2,12.4,small,87,31,3,27,26,3,2025-03-22T04:02:51.734432Z,OH_Oberlin_v2025-03-22.1.csv
Haringey,,Greater London,England,England,2025,,417652,51.5938,-0.1017,20,624b1cb3-2c6a-4f3c-929a-16d1cb755a35,68.84,0,83.12,58.39,37.54,65.29,82.17,81.79,68.64,82.46,88.67,80.72,80.86,83.33,83.63,66.06,82.66,77.24,78.15,75.36,75,461.5,49.7,large,85,31,,17,11,,2025-04-18T00:33:26.169280Z,GB_Haringey_v2025-04-18.1.csv
Ealing,,Greater London,England,England,2025,,489621,51.5127,-0.3052,20,522bea7b-6bbe-4727-aec1-de3e8791f3a9,66.89,0,82.1,71.92,62.32,74.45,81.26,77.86,60.34,79.37,87.66,77.22,77.54,82.17,82.12,73.49,78.49,78.19,72.09,75.3,75,751.3,91.2,large,86,32,,18,12,,2025-04-17T23:59:49.922250Z,GB_Ealing_v2025-04-17.1.csv
Stevenage,,Hertfordshire,England,England,2025,,95303,51.9032,0.1852,30,289ec6c4-9359-4580-89c4-285c5f0611a9,73.59,0,83.68,66.98,0,79.97,76.13,58.93,62.38,77.11,82.77,76.92,73.54,79.8,84.68,84.7,66.46,80.13,61.12,74.9,75,125.6,336.2,medium,88,25,,19,6,,2025-04-19T15:45:50.544047Z,GB_Stevenage_v2025-04-19.1.csv
Lambeth,,Greater London,England,England,2025,,458877,51.4581,-0.1237,20,11d006a5-3faa-49ad-b346-3771a8ecec4b,68.81,0,83,64.64,40.21,67.01,80.74,82.08,76.09,81.77,86.63,81.97,81.7,82.29,83.87,51.86,81.6,72.1,76.47,74.69,75,495.3,58.3,large,89,33,,20,13,,2025-04-18T04:07:17.963350Z,GB_Lambeth_v2025-04-18.1.csv
Lelystad,FL,Flevoland,Netherlands,Netherlands,2025,,90600,52.5185,5.4714,20,6e219dda-3239-472a-9a58-afeabedfa6bc,67.49,0,75.69,81.36,0,76.95,74.13,69.41,87.09,72.59,77.82,82.77,78.31,70.3,73.93,89.94,65.95,77.54,75.01,74.6,75,1048.8,478.2,medium,90,26,2,13,10,2,2025-04-23T16:12:13.154890Z,NL_Lelystad_v2025-04-23.1.csv
Aspen,CO,Colorado,United States,Mountain,2025,803620,6862,39.1951539,-106.8368071,20,2e019fd4-7d35-41e6-927d-aed9505bba64,78.21,78.27,55.79,0,0,67.03,0,0,69.91,82.97,74.99,0,74.59,74.34,86.54,87.93,0,87.19,67.96,74.48,74,122.1,18.6,small,92,32,2,28,27,2,2025-03-15T13:52:46.868204Z,CO_Aspen_v2025-03-15.1.csv
Sonoma,CA,California,United States,Pacific,2025,672646,10726,38.2903313,-122.459831,25,89bd06cd-11fc-48b4-9a7e-9943577379a6,63.03,73.5,80.24,78.89,0,77.12,81.09,0,70.18,70.12,76.93,60.61,72.88,76.42,81.29,0,75.26,78.97,0,73.84,74,84.1,13.3,small,95,33,2,29,28,1,2025-03-13T18:52:13.346929Z,CA_Sonoma_v2025-03-13.1.csv
Düsseldorf,,North Rhine-Westphalia,Germany,Germany,2025,,693104,51.223,6.7823,31,44b4111c-287c-4a9b-b5b0-d8f9c9fbedf1,69.01,0,81.1,63.35,68.86,74.6,75.23,72.61,69.53,76.56,84.39,77.77,76.63,78.66,83.26,88.62,68.32,81.4,65.94,74.5,74,2153.6,579.7,large,91,34,,7,7,,2025-04-24T23:46:15.029938Z,DE_Düsseldorf_v2025-04-24.1.csv
Lancaster,,Lancashire,England,England,2025,,143927,40.0403,76.3042,30,edba7dce-5635-452a-be56-06ccfd2a1d66,72.07,0,75.85,64.65,70.3,72.42,76.27,76.7,75.58,76.42,80.23,76.08,77.15,77.32,78.79,77.84,76.18,77.81,68.94,74.34,74,850.9,699.9,medium,93,27,,21,7,,2025-04-19T15:33:21.667444Z,GB_Lancaster_v2025-04-19.1.csv
Kensington and Chelsea,,Greater London,England,England,2025,,288290,51.4917,-0.1843,20,17d294de-0bb3-416f-a9de-81dea2659a63,58.42,0,81.15,77.58,79.65,80.14,80.89,79.67,78.49,79.41,86.13,79.07,81.18,81.69,80.85,35.27,79.7,64.61,74.5,74.15,74,228,32.7,medium,94,28,,22,8,,2025-04-18T04:06:24.047662Z,GB_Kensington and Chelsea_v2025-04-18.1.csv
Boucherville,QC,Quebec,Canada,Canada,2025,,55817,45.5914,-73.4364,25,1406d838-815f-489d-bea8-5ff90d9da090,75.17,0,82.51,32.26,0,71.34,68.6,58.55,0,67.5,81.3,79.51,58.58,82.7,86.19,87.53,64.78,81.31,79.16,73.74,74,367.3,123.2,medium,96,29,4,6,2,1,2025-04-21T04:12:32.115515Z,CA_Boucherville_v2025-04-21.1.csv
Knokke,,West Flanders,Belgium,Belgium,2025,,34742,51.346,3.2888,25,c69fe639-3e40-464e-991d-7c1641e685f2,76.87,0,82.92,0,0,82.92,74.22,0,47.05,80.46,79.87,74,70.41,64.36,80.45,87.17,43.2,73.49,71.83,73.65,74,384.2,95.4,small,97,34,,8,1,,2025-04-22T01:18:49.422710Z,BE_Knokke_v2025-04-22.1.csv
Merton,,Greater London,England,England,2025,,311663,51.4104,-0.2001,20,024b408e-86f6-4f46-b35b-fbf7cb70ae03,63.05,0,81.72,58.65,48.55,67.96,77.77,75.64,70.12,79.21,86.53,78.82,78.52,82.43,82.57,69.05,79.99,77.19,72.6,73.59,74,511.9,45.3,large,98,35,,23,14,,2025-04-18T14:48:34.052090Z,GB_Merton_v2025-04-18.1.csv
Bayreuth,,Bavaria,Germany,Germany,2025,,77368,49.9456,11.5713,31,4c8ca715-1a7c-408b-bfa0-644dff0205a4,70.09,0,78.1,65.27,72.65,74.45,77.99,75.48,51.37,75.08,81.1,79.08,73.07,79.05,81.31,72.93,72.1,76.07,68.14,73.51,74,471.3,182.1,medium,99,30,,8,1,,2025-04-24T23:43:42.754278Z,DE_Bayreuth_v2025-04-24.1.csv
Canmore,AB,Alberta,Canada,Canada,2025,,18170,51.0884,-115.3479,30,17c5a242-b520-4277-8dec-82ad0a2d5320,77.57,0,62.64,69.12,0,64.08,69.12,66.06,69.12,67.77,81.29,32.24,66.19,79.72,86.34,90.61,0,88.33,70.74,73.51,74,256.9,143.4,small,99,35,1,7,5,1,2025-04-20T17:16:10.226998Z,CA_Canmore_v2025-04-20.1.csv
Jersey Shore,PA,Pennsylvania,United States,Mid-Atlantic,2025,4238128,4133,41.200731,-77.2665691,25,282806b6-d96f-4e88-877a-449c32e41ee3,79.08,83.67,67.75,0,0,75.71,0,0,87.62,84.9,88.85,86.48,68,0,73.57,70.55,0,72.16,0,73.47,73,38.5,5.2,small,101,36,1,30,29,1,2025-03-22T00:58:15.347445Z,PA_Jersey Shore_v2025-03-22.1.csv
Ashland,OR,Oregon,United States,Pacific,2025,4103050,21343,42.1922159,-122.6982503,25,82389ded-144b-4347-a02b-8a9696fafa35,76.66,77.72,75.09,0,70.81,75.16,75.41,0,68.77,64.95,79.44,38.89,67.81,76.26,81.36,56.57,81.23,72.65,0,73.45,73,226.2,14.9,small,104,37,1,32,30,1,2025-03-22T02:53:57.431288Z,OR_Ashland_v2025-03-22.1.csv
Sedona,AZ,Arizona,United States,Mountain,2025,465350,9770,34.8585174,-111.7930574,25,96595ae1-a0ba-4e79-952b-439aeeda6d83,80.62,80.55,60.94,0,35.65,62.95,80.06,0,20.37,71.96,81.24,0,63.46,78.7,80.88,90.8,94.16,87.67,0,73.33,73,460.2,35.7,small,105,38,1,33,31,1,2025-03-21T03:48:55.588410Z,AZ_Sedona_v2025-03-21.1.csv
Brooklyn,NY,New York,United States,Mid-Atlantic,2025,3651000,8516202,40.6627117,-73.9386769,25,6bb0370b-1cf8-43c7-9264-163580d2f0ef,70.18,66.83,81.61,45.32,56.44,67.77,77.36,72.24,64.69,76.95,85.88,75.02,76.05,78.73,81.4,67.81,55.75,70.23,73.33,72.63,73,2239.4,693.8,large,109,39,1,34,1,1,2025-03-22T04:37:50.685117Z,NY_Brooklyn_v2025-03-22.1.csv
Berkeley,CA,California,United States,Pacific,2025,606000,120223,37.8656733,-122.2987247,25,d2987dca-7cfe-4af7-a5f8-702022a00420,71.63,70.08,79.94,77.83,78.06,75.9,71.9,74.24,69.28,66.49,80.49,77.19,74.01,78.77,80.73,54.31,73.77,69.74,69.77,73.47,73,384.1,111.9,medium,101,31,3,30,2,2,2025-03-13T18:52:32.289843Z,CA_Berkeley_v2025-03-13.1.csv
Wandsworth,,Greater London,England,England,2025,,488546,51.457,-0.1933,20,dd587e2d-cab0-448d-8451-dfb2d4d22b7f,62.7,0,81.26,65.62,56.57,71.26,79.72,79.71,73.02,80.73,86.7,78.6,80.06,80.8,81.15,55.8,79.94,71.98,72.47,73.46,73,619.7,69.3,large,103,36,,24,15,,2025-04-19T15:28:23.996863Z,GB_Wandsworth_v2025-04-19.1.csv
Bicester,,Oxfordshire,England,England,2025,,34638,51.9037,-1.147576406,30,1865eff4-60f7-44bb-9adf-8969d3270970,69.64,0,80.93,0,0,80.93,56.67,63.04,58.59,67.73,83.45,65.06,66.75,84.81,81.36,65.4,57.35,69.77,64.51,72.85,73,76.1,152.5,small,106,39,,25,2,,2025-04-16T01:06:13.349255Z,GB_Bicester_v2025-04-16.1.csv
Karlsruhe,,Baden-Württemberg,Germany,Germany,2025,,341439,49.0069,8.4037,31,f5b531b0-cc98-4539-ba1d-a9e5aa922c1b,66.97,0,77.51,65.93,62.98,71.26,74.91,65.7,65.35,71.42,78.56,76.19,72.83,75.46,80.27,84.71,71.66,79.67,71.21,72.81,73,1572.4,415.4,large,107,37,,9,8,,2025-04-24T23:44:24.199616Z,DE_Karlsruhe_v2025-04-24.1.csv
Richmond upon Thames,,Greater London,England,England,2025,,333676,51.4385,-0.3176,20,b6ce682a-47b8-4abe-8f22-7b08762e7795,59.65,0,81.34,45.33,61.65,69.74,77.4,78.51,61.11,77.72,84.57,75.83,75.84,80.67,81.04,80.83,78.23,80.26,70.69,72.81,73,870.3,49.3,large,107,37,,26,16,,2025-04-18T18:12:13.289822Z,GB_Richmond upon Thames_v2025-04-18.1.csv
Dordrecht,ZH,South Holland,Netherlands,Netherlands,2025,,138166,51.8133,4.6901,19,3ff40dc1-d2a7-4ab3-a594-d5b3f52975e9,66.05,0,72.5,81.36,76.36,75.05,68.2,63.69,74.25,69.33,76.52,71.18,71.6,76.88,79.24,91.04,69.5,80.94,64.82,72.63,73,715.5,190.9,medium,109,32,4,14,11,3,2025-04-24T23:49:47.444309Z,NL_Dordrecht_v2025-04-24.1.csv
Minneapolis,MN,Minnesota,United States,Midwest,2025,2743000,426845,44.9633242,-93.2683198,20,84d22c8c-483f-4daa-9d3f-9461fb96059f,73.75,62.13,79.65,57.78,53.62,66.13,66.85,60.57,63.41,56.25,81.54,74.78,69.34,82.72,83.12,94.47,64.27,82.38,59.75,71.88,72,2231.8,478.6,large,116,42,1,36,2,1,2025-03-23T22:34:02.312891Z,MN_Minneapolis_v2025-03-23.1.csv
Bluffton,OH,Ohio,United States,Midwest,2025,3907426,3799,40.8920482,-83.8877931,25,6920931e-1ad5-4fa4-9268-94f9610fc244,72.2,68.94,76.42,0,86.32,75.71,76.04,0,76.04,76.04,76.04,64.33,74.09,65.67,70.88,0,76.04,72.86,0,72.43,72,46.8,22.6,small,112,40,4,35,32,4,2025-03-22T04:02:48.932577Z,OH_Bluffton_v2025-03-22.1.csv
Lake Geneva,WI,Wisconsin,United States,Midwest,2025,5541450,8443,42.583346,-88.4284541,25,2e014509-7289-4816-b59e-0eafc9b0ea5f,75.1,72.46,79.47,0,0,75.97,92.43,62.8,92.43,54.31,36.06,40.99,63.85,82.15,79.41,44.9,0,63.31,0,71.82,72,119.1,29.8,small,117,42,5,37,33,5,2025-03-20T19:02:14.429774Z,WI_Lake Geneva_v2025-03-20.1.csv
Montreal,QC,Quebec,Canada,Canada,2025,,1826998,45.5017,-73.5673,20,9b38cc75-ab06-433a-950c-45d545562333,66.35,0,81.07,63.63,55.85,70.63,68.51,67.03,68.72,75.01,84.32,78.78,74.55,79.92,82.02,79.37,64.6,76.74,66.57,72.47,72,4157.2,1235.6,large,111,40,5,8,1,1,2025-04-21T04:09:29.622896Z,CA_Montreal_v2025-04-21.1.csv
Kimberley,BC,British Columbia,Canada,Canada,2025,,9006,49.6697,-115.9775,31,aad44c49-8458-4f6f-a92b-fcd6e18f7899,80.89,0,68.9,0,0,68.9,67.33,0,0,55.47,63.43,67.33,64.24,70.08,82.8,63.71,67.33,72.25,79.58,72.05,72,179.3,110.1,small,113,41,3,9,6,2,2025-04-21T03:31:43.471425Z,CA_Kimberley_v2025-04-21.1.csv
Bracknell,,Berkshire,England,England,2025,,70975,51.4056,-0.754373157,30,25025787-8bd6-4f3c-8f46-31bc49f53fad,68.91,0,80.42,66.96,0,77.43,71.49,65.68,0,70.52,81.64,71.97,59.12,81.37,83.05,79.36,70.42,78.6,68.76,71.96,72,133.6,187.9,medium,114,33,,27,9,,2025-04-16T23:03:31.529327Z,GB_Bracknell_v2025-04-16.1.csv
Köln,,North Rhine-Westphalia,Germany,Germany,2025,,1200156,50.9375,6.9603,31,de7577d8-1b7d-48bc-9642-d2c07437cce3,66.75,0,79.27,66.95,65.24,73.06,73.76,67.37,60.15,73.69,83.25,79.1,73.57,75.64,81.01,88.03,58.11,77.74,63.94,71.94,72,3973.1,1247.2,large,115,41,,10,9,,2025-04-24T23:46:51.713518Z,DE_Köln_v2025-04-24.1.csv
Kortrijk,,West Flanders,Belgium,Belgium,2025,,84350,50.828,3.2649,25,8186ed95-cc84-4cec-8ede-ba85c1f53809,67.44,0,76.93,70.83,75.25,75.47,58.6,48.47,63.45,70.77,80.35,77.17,68,74.21,79.85,77.05,70.84,76.62,68.31,71.68,72,657,200.4,medium,118,34,,9,6,,2025-04-22T01:19:07.615623Z,BE_Kortrijk_v2025-04-22.1.csv
Norwich,,Norfolk,England,England,2025,,177584,52.6353,1.286147925,30,0fddc8bd-e762-4beb-bf82-0e58177abe4f,66.57,0,80.61,36.85,71.12,70.96,75.28,73.73,59.02,74.38,79.56,78.84,73.39,81.21,80.89,73.97,75.47,77.11,59.85,71.58,72,489.9,223.6,medium,119,35,,28,10,,2025-04-18T14:57:20.971958Z,GB_Norwich_v2025-04-18.1.csv
Valdez,AK,Alaska,United States,Pacific,2025,282200,3911,61.0836208,-146.317179,25,376badb4-fa3f-4ce7-9ba2-27cc53c6277d,86.59,77.22,91.9,91.4,91.4,86.61,80.04,94.54,94.54,0,94.54,94.54,91.32,63.07,67.8,84.84,0,75.75,13.52,71.43,71,178.4,69.4,small,121,43,1,38,34,1,2025-03-15T13:58:28.124796Z,AK_Valdez_v2025-03-15.1.csv
Corvallis,OR,Oregon,United States,Pacific,2025,4115800,60424,44.5699488,-123.2782855,25,21e5ca4f-5dbc-4b20-89e0-d180ce2201f8,74.37,64.81,67.44,71.87,81.8,69.83,67.02,63.47,36.62,53.32,72.14,72.83,61.37,72.14,82.45,73.72,54.39,72.38,76.98,70.62,71,423.3,61.2,medium,128,38,2,39,3,1,2025-03-22T02:53:59.111869Z,OR_Corvallis_v2025-03-22.1.csv
Bogotá,,Capital District,Colombia,Colombia,2025,,7775667,4.6069,-74.0718,25,6ef7ea66-27c5-4ebc-88ef-4fc94fa4fc72,62.85,0,80.17,67.77,70.08,75.16,67.66,70.14,71.62,76.48,83.74,63.47,72.97,71.7,81.11,73.22,70.44,75.68,68.55,71.44,71,5898.3,1829.1,large,120,43,,1,1,,2025-04-22T07:21:08.490912Z,CO_Bogotá_v2025-04-22.1.csv
Saint-Quentin-en-Yvelines,IDF,Ile-de-France,France,France,2025,,166317,48.7719,2.0189,25,94d7445f-d96d-4a8f-bbc6-b63b5854c8a4,68.83,0,84,76.71,61,75.8,68.36,47.59,49.26,79.65,85.41,70.46,68.17,77.7,83.31,83.12,73.83,80.87,56.64,71.4,71,730.9,200.8,medium,122,36,2,7,3,1,2025-04-22T02:00:47.994056Z,FR_Saint-Quentin-en-Yvelines_v2025-04-22.1.csv
Chichester,,West Sussex,England,England,2025,,31643,50.8376,0.7749,30,7f062494-fb43-4e0e-939f-f5bec9da8c5d,70.53,0,81.03,48.67,79.28,75.51,72.42,65.71,71.09,71.86,84.46,82.35,75.93,80.1,82.04,57.09,79.27,72.62,49.2,71.16,71,105.7,51.9,small,123,44,,29,3,,2025-04-19T15:45:13.589369Z,GB_Chichester_v2025-04-19.1.csv
Lisbon,,Lisbon,Portugal,Portugal,2025,,612893,38.7223,9.1393,25,81832b7a-05c8-40f1-9798-4b9bd4e0c101,54.9,0,79.37,58.53,71.33,73.69,79.03,74.17,76.23,79.15,86.34,77.29,79.56,78.23,79.65,55.44,61.74,66.7,69.71,71.08,71,1016.8,477.3,large,124,44,,1,1,,2025-04-22T07:28:37.077212Z,PT_Lisbon_v2025-04-22.1.csv
Enschede,OV,Overijissel,Netherlands,Netherlands,2025,,172673,52.2215,6.8937,20,fa7c39f0-7d85-4690-b0e9-432bedfadfdb,68.23,0,69.98,71.53,74.55,71.62,67.76,66.19,82.36,69.86,72.33,67.21,71.79,77.15,75.31,76.68,67.98,73.96,63.17,71.06,71,1028.2,491.4,medium,125,37,3,15,12,3,2025-04-23T16:11:54.968022Z,NL_Enschede_v2025-04-23.1.csv
Milan,,Lombardy,Italy,Italy,2025,,1282154,45.4642,9.19,25,ba8167e1-8303-4a7e-a653-d8c7e42baad8,60.26,0,80.2,53.21,65.62,71.56,72.56,70.26,72.95,79.69,86.55,75.84,77.11,79.9,80.39,38.45,71.1,63.39,70.39,70.83,71,1642.3,666.4,large,126,45,,3,2,,2025-04-22T19:46:48.345940Z,IT_Milan_v2025-04-22.1.csv
Oaxaca,,Oaxaca,Mexico,Mexico,2025,,336058,17.0757,-96.727,25,0e3233a5-d33f-4a2c-83bf-d10298e85a7b,57.14,0,79.57,75.48,73.97,77.22,78.74,79.38,57.32,70.87,84.77,79.51,75.36,59.73,71.18,100,69.07,80.74,69.8,70.63,71,1127.3,179.1,large,127,46,,1,1,,2025-04-22T07:30:53.311665Z,MX_Oaxaca_v2025-04-22.1.csv
Cardiff,,Cardiff,Wales,Wales,2025,,399627,51.4837,3.1681,20,6b350a3e-efd5-4ed1-8eb2-1c58e1df2209,64.01,0,80.51,61.15,63.68,72.35,72.56,63.73,65.69,71.22,81.1,75.79,72.79,79.41,80.85,50.42,71.83,67.94,65.72,70.59,71,1384.9,343.8,large,129,47,,1,1,,2025-04-22T07:27:25.894479Z,GB_Cardiff_v2025-04-22.1.csv
Calais,HDF,Hauts-de-France,France,France,2025,,74442,50.9516,1.8613,25,24db0c9a-f226-4920-9c8b-a44967b26b36,69.76,0,82.61,69.73,0,79.75,45.67,60.24,37.41,78.18,83.1,76.57,62.72,79.51,79.25,67.5,61.23,70.63,60.51,70.56,71,294.7,102,medium,130,39,1,8,4,1,2025-04-22T01:59:59.862696Z,FR_Calais_v2025-04-22.1.csv
Longueuil,QC,Quebec,Canada,Canada,2025,,285387,45.5369,-73.5107,25,6ac77698-9eb0-49ea-8cef-6a0e9ed14cfc,67.06,0,81.88,61.71,56.72,71.04,72.75,71.13,49.41,74.2,84.03,79.55,71.91,79.96,82.33,91.32,52.4,77.99,54.76,70.56,71,1124,307.8,medium,130,39,6,10,3,2,2025-04-21T19:30:37.287991Z,CA_Longueuil_v2025-04-21.1.csv
Ocean City,NJ,New Jersey,United States,Mid-Atlantic,2025,3454360,11260,39.2695228,-74.5997966,25,fe264811-4b0a-400a-a304-40845124d300,79.69,76.1,72.51,0,0,74.31,76.5,0,0,40.48,77.79,59.64,47.74,70.83,70.35,81.12,59.64,71.44,83.15,70.18,70,146.1,54,small,132,45,1,40,35,1,2025-03-24T20:16:13.329662Z,NJ_Ocean City_v2025-03-24.1.csv
Rogers City,MI,Michigan,United States,Midwest,2025,2669260,2873,45.4176986,-83.8047512,25,5a811ab8-d2ef-4502-8bc4-df719b0fcb01,77.48,74.05,74.02,0,74.56,74.15,9.78,80.78,0,30.12,63.19,83.62,51.73,80.69,81.3,0,49.31,69,0,69.71,70,64,17.6,small,137,46,2,41,36,2,2025-03-25T22:55:04.812150Z,MI_Rogers City_v2025-03-25.1.csv
Marquette,MI,Michigan,United States,Midwest,2025,2651900,20691,46.5506978,-87.3958333,25,61372633-ce0d-4580-ade6-095366aef342,69.25,72.31,64.13,0,83.14,71.54,66.89,63.48,76.9,56.87,66.68,63.58,67,74.81,77.24,94.14,0,85.13,50.52,69.66,70,305.5,77.2,small,138,47,3,42,37,3,2025-03-25T22:55:03.166322Z,MI_Marquette_v2025-03-25.1.csv
Boulder,CO,Colorado,United States,Mountain,2025,807850,106274,40.0244306,-105.251251,20,b41e7df5-eb72-4388-924b-d49e8173f915,71.64,64.48,79.02,59.71,74.01,71,62.79,65.8,58.78,59.85,75.89,72.05,66.66,76,82.24,89.32,52.44,77.27,54.95,69.51,70,805.9,138.2,medium,139,42,3,43,4,1,2025-03-15T13:52:48.610970Z,CO_Boulder_v2025-03-15.1.csv
Rotterdam,ZH,South Holland,Netherlands,Netherlands,2025,,695468,51.9244,4.4777,20,b9c023da-7cac-4b42-be6b-d78038aa5cbf,65.79,0,70.09,75.39,69.81,70.82,61.75,58.29,68.01,70.05,74.47,66.8,67.42,74.32,72.98,94.26,63.62,78.09,64.83,70.1,70,2166.4,992.9,large,133,48,5,16,4,2,2025-04-23T16:13:14.335651Z,NL_Rotterdam_v2025-04-23.1.csv
Alicante,,Alicante,Spain,Spain,2025,,390515,38.3458,0.4909,20,0c710b8c-af1c-4ca0-bbf5-2cdd9ec54432,70.01,0,75.53,63.51,72.33,72.7,73.93,70.4,60.91,74.26,79.48,66.9,71.34,70.59,76.18,84.02,52.87,73.1,60.85,69.99,70,1297.7,297.6,large,134,49,,4,4,,2025-04-21T20:07:26.710255Z,ES_Alicante_v2025-04-21.1.csv
Kingston upon Thames,,Greater London,England,England,2025,,203160,51.4123,0.3007,20,8be3a07d-bf69-4788-bb5e-70ab5c8e2494,58.44,0,80.57,61.53,63.33,72.34,72.37,76.41,66.48,73.76,82.21,74.74,74.55,77.61,80.41,42.13,71.73,64.84,68.69,69.82,70,412.2,102.9,medium,135,41,,30,11,,2025-04-18T04:06:52.170319Z,GB_Kingston upon Thames_v2025-04-18.1.csv
Torino,,Provincia di Torino,Italy,Italy,2025,,916479,45.0703,7.6869,31,c891e9be-ff49-4205-88fe-32008e8c2dfa,59.64,0,79.71,47.1,59.56,68.49,72.46,65.54,66.22,79.74,86.05,69.74,74.24,79.4,80.68,79.57,55.92,74.1,61.51,69.74,70,691.7,1243.8,large,136,50,,4,3,,2025-04-24T23:48:31.621370Z,IT_Torino_v2025-04-24.1.csv
Key West,FL,Florida,United States,South,2025,1236550,25824,24.5650628,-81.7755389,20,d2f4c85f-c0b0-413b-8061-24330f4ad95e,71.23,75.22,71.39,67.36,0,72.56,52.62,40.85,30.43,55.45,81.21,30.19,51.07,75.03,83.14,97.16,63.38,83.11,62.62,68.52,69,205.8,26.7,small,148,51,1,47,41,1,2025-03-23T01:09:39.116714Z,FL_Key West_v2025-03-23.1.csv
Point Arena,CA,California,United States,Pacific,2025,657876,831,38.912306,-123.6956087,25,1534c257-2823-480a-8e7f-2c9d4a91c565,65.28,66.72,55.41,38,0,58.18,0,0,0,0,0,0,,84.24,72.08,0,0,72.08,0,69.04,69,4.5,5.3,small,142,48,4,44,38,2,2025-03-13T18:52:22.487628Z,CA_Point Arena_v2025-03-13.1.csv
Alpena,MI,Michigan,United States,Midwest,2025,2601740,10178,45.0744747,-83.4435713,25,f38fca3b-684c-4b8b-9372-d2aac8e78771,63.89,63.09,63.23,66.77,0,63.61,67.66,68.97,63.89,59.5,64.57,79.08,67.16,76.96,78.16,89.69,45.54,74.04,0,68.69,69,173.4,30.4,small,146,50,4,46,40,4,2025-03-25T22:54:54.660294Z,MI_Alpena_v2025-03-25.1.csv
Ojai,CA,California,United States,Pacific,2025,653476,7576,34.4491994,-119.2466643,25,d3fd010d-776e-4803-8ff4-be8f4d474f4f,71.64,74.39,79.82,0,0,77.11,55.13,50.43,57.24,52.19,79.13,76.62,64.01,66.64,81.83,29.71,82.52,63.76,0,68.86,69,109.5,9.4,small,144,49,5,45,39,3,2025-03-13T18:52:12.631438Z,CA_Ojai_v2025-03-13.1.csv
Greenwich,,Greater London,England,England,2025,,392264,51.4845,0.0026,20,2c48cc85-6242-4279-a189-867f3b45e312,59.01,0,80.28,53.14,38.26,63.18,73.69,72.15,54.48,78.3,83.96,76.59,73.16,79.12,80.04,68.38,73.02,74.2,67.29,69.21,69,736.5,139.1,large,140,51,,31,17,,2025-04-18T00:31:32.479547Z,GB_Greenwich_v2025-04-18.1.csv
Gatineau,QC,Quebec,Canada,Canada,2025,,333093,45.4765,-75.7013,25,8546eac5-8b8d-48ff-ae20-c073b159b6b3,65.8,0,78.26,58.46,56.67,68.57,65.98,69.15,66.88,68.64,75.74,68.73,69.6,76.57,80.74,88.47,65.34,79.6,54.23,69.06,69,1725.1,664.9,large,141,52,7,11,2,2,2025-04-21T18:26:52.349328Z,CA_Gatineau_v2025-04-21.1.csv
Bath,,Somerset,England,England,2025,,95337,51.3868,-2.3695,30,143cc2d0-7fc9-4cde-8c6f-bcc2a0d115f1,62.12,0,78.96,59.45,60.64,70.32,74.55,68.76,60.61,72.79,82.09,80.06,73.72,80.14,79.65,45.82,76.11,66.92,58.89,69.02,69,147.2,207.2,medium,143,43,,32,12,,2025-04-16T01:04:51.880663Z,GB_Bath_v2025-04-16.1.csv
Frankfurt am Main,,Hessen,Germany,Germany,2025,,827257,50.1109,8.6821,31,2b001936-2e5b-4109-a24b-445ff12d8cf4,59.05,0,74.08,55.51,60.13,66.93,70.46,64.97,52.46,71.82,80.91,73.51,69.52,75.5,76.89,76.55,66.77,74.24,67.33,68.71,69,2178.3,653.7,large,145,53,,11,10,,2025-04-24T23:47:36.521174Z,DE_Frankfurt am Main_v2025-04-24.1.csv
Bristol,,Bristol,England,England,2025,,503753,51.4495,-2.563263094,30,d091d0f3-e145-4d18-a94d-8a10c8ea7678,58.56,0,79.93,59.87,56.14,69.52,74.31,69.65,65.12,73.89,82.89,78.51,74.74,78.76,80.51,54.81,74.57,70.03,57.26,68.54,69,1070.6,579.2,large,147,54,,33,18,,2025-04-16T23:05:56.916685Z,GB_Bristol_v2025-04-16.1.csv
Stuttgart,,Baden-Württemberg,Germany,Germany,2025,,679346,48.7758,9.1829,31,b185965f-7166-46c2-96ce-b8167261eeb9,58.83,0,79.27,47.25,46.27,64.19,76.97,71.54,50.89,75.15,84.39,78.53,73.12,77.03,79.63,49.08,69.31,66.36,71.45,68.51,69,2353.6,628.2,large,149,55,,12,11,,2025-04-24T23:43:59.238272Z,DE_Stuttgart_v2025-04-24.1.csv
Port Townsend,WA,Washington,United States,Pacific,2025,5355855,10290,48.1217622,-122.7878764,25,d47a5e03-fd14-4f16-8cff-f6154ed2ace5,81.67,69.56,74.71,0,0,72.14,2.34,59.7,56.2,2.35,79.6,81.1,49.98,78.76,84.68,40.21,0,63.93,68.79,68.4,68,238.2,32.3,small,150,52,1,48,42,1,2025-03-20T22:56:54.741268Z,WA_Port Townsend_v2025-03-20.1.csv
Cape Charles,VA,Virginia,United States,South,2025,5112808,1278,37.2497259,-76.0141561,25,2a3bc46f-a6ba-456d-89e9-fc0ba22d6bd8,76.83,79.61,84.1,0,0,81.86,94.28,0,0,1.81,0,0,34.61,84.71,66.95,0,0,66.95,0,67.73,68,57.2,9.8,small,155,54,1,51,44,1,2025-03-21T04:22:57.204587Z,VA_Cape Charles_v2025-03-21.1.csv
Chautauqua,NY,New York,United States,Mid-Atlantic,2025,3614058,340,42.2100774,-79.4690149,30,52c2ef82-c785-49aa-b276-4cbe6677a8de,54.57,53.06,91.29,0,0,72.18,0,0,0,0,0,0,,68.17,73.75,0,0,73.75,0,67.55,68,26.3,3.9,small,157,55,2,52,45,1,2025-03-22T05:15:29.213713Z,NY_Chautauqua_v2025-03-22.1.csv
Cambridge,MA,Massachusetts,United States,New England,2025,2511000,117794,42.3760428,-71.1186798,25,28890c81-fa25-465c-a93d-eb8ac2834ff6,57.25,49.94,76.76,64.09,75.78,65.91,71.15,73.86,67.49,70,82.27,75.07,73.94,79.44,80.17,81.9,51.02,73.49,57.73,68.16,68,282.4,66.6,medium,152,45,2,49,5,1,2025-03-23T22:17:09.396917Z,MA_Cambridge_v2025-03-23.1.csv
Hustisford,WI,Wisconsin,United States,Midwest,2025,5536625,1062,43.3426962,-88.6034713,25,76c741bd-8c01-4bba-ac17-7ec662c7d04c,67.65,69.08,82.23,0,0,75.66,0,0,0,0,0,0,,57.82,68.24,0,0,68.24,0,67.98,68,12.7,6,small,154,53,6,50,43,6,2025-03-20T19:02:18.043790Z,WI_Hustisford_v2025-03-20.1.csv
Verona,,Veneto,Italy,Italy,2025,,264286,45.4384,10.9916,25,223a43bc-ebd2-4ffa-b958-84a509c65b72,64.24,0,77.63,64.83,63.84,71.42,66.55,62.98,59.88,75.64,82.98,65.56,69.73,75.27,80.56,73.25,35.59,66.76,61.05,68.33,68,1136.3,437.1,medium,151,44,,5,2,,2025-04-22T19:48:04.270981Z,IT_Verona_v2025-04-22.1.csv
Croydon,,Greater London,England,England,2025,,464172,51.3765,-0.1006,20,87187df9-fb9c-4e1c-a1dc-29ff1ba062d4,52.37,0,78.21,59.75,0,74.11,68.29,62.21,60.28,74.89,79.95,71.45,70.13,75.46,77.84,62.62,67.71,69.98,64.01,68.12,68,999.8,187.2,large,153,56,,34,19,,2025-04-17T17:02:08.018610Z,GB_Croydon_v2025-04-17.1.csv
Hamburg,,Hamburg,Germany,Germany,2025,,1873971,53.5488,9.9872,25,20609e6d-01b0-44ef-86ab-c5dbabf9a6e7,60.46,0,74.3,57.84,52.32,65,69.72,67.83,58.29,71.34,77.92,74.89,70.23,75.08,77.75,60.69,70.38,69.94,65.02,67.62,68,5424.3,1360.6,large,156,57,,13,12,,2025-04-22T07:21:47.644024Z,DE_Hamburg_v2025-04-22.1.csv
Soldotna,AK,Alaska,United States,Pacific,2025,271640,4448,60.4853176,-151.0690145,25,4ff4f4c9-c193-44cf-bd47-19869d8d98a7,72.76,77.36,49.09,0,32.19,56.33,79.33,0,77.52,39.08,53.58,0,64.9,69.17,67.54,90.61,0,78.31,0,67.39,67,99.5,12.4,small,158,56,2,53,46,2,2025-03-15T13:58:27.856370Z,AK_Soldotna_v2025-03-15.1.csv
Calumet,MI,Michigan,United States,Midwest,2025,2612580,676,47.2477442,-88.4534164,25,dbfacaff-5d9d-4197-890d-360381aa6a0d,61.81,82.51,30,0,0,56.26,0,0,0,100,100,100,55.56,76,82,100,0,90.4,0,66.58,67,7.7,1.6,small,163,60,5,56,49,5,2025-03-25T22:54:55.093678Z,MI_Calumet_v2025-03-25.1.csv
Stanford,CA,California,United States,Pacific,2025,673906,17958,37.4269331,-122.1677411,25,3a768688-3ee0-43b5-a6f1-e3fd63075a37,64.56,39.54,66.93,97.79,84.87,64.02,78.21,62.97,65.14,57.46,61.42,51.86,63.85,71.44,84.11,91.73,92.29,88.82,51.72,67.06,67,134.5,15,small,159,57,6,54,47,4,2025-03-13T18:52:30.736620Z,CA_Stanford_v2025-03-13.1.csv
Marshfield,WI,Wisconsin,United States,Midwest,2025,5549675,18718,44.6632915,-90.171736,25,d01d9bbc-15e6-4486-be05-c48f6b7c8be9,73.39,67.69,74.51,51.97,51.46,65.26,52.36,62.38,74.46,63.32,71.58,0,65.68,47.85,81.49,91.54,68.03,81.64,0,66.61,67,277,42.4,small,162,59,7,55,48,7,2025-03-20T19:02:13.989368Z,WI_Marshfield_v2025-03-20.1.csv
Aachen,,North Rhine-Westphalia,Germany,Germany,2025,,254392,50.7753,6.0839,31,6e3d8ec2-300d-451b-9f0d-25ebbfec22bf,62.25,0,75.59,56.93,62.29,68.63,70.25,66.08,57.62,67.86,77.69,73.08,69.35,73.01,79.5,71.33,65.46,73.13,53.27,66.85,67,1051.5,331.3,medium,160,46,,14,2,,2025-04-24T21:10:51.557608Z,DE_Aachen_v2025-04-24.1.csv
Deinze,,East Flanders,Belgium,Belgium,2025,,39550,50.9875,3.5236,25,26ede25c-52e8-48fb-a790-4dc7ba4352a1,64.99,0,68.27,0,0,68.27,64.75,65.31,80.11,67.14,65.58,61.64,67.86,62.27,70.61,74.32,54.58,67.9,68.33,66.75,67,405.1,100.4,small,161,58,,10,2,,2025-04-22T01:17:17.187941Z,BE_Deinze_v2025-04-22.1.csv
London Metro,,Greater London,England,England,2025,,9365359,51.5099,-0.1181,30,e68e30c6-9877-4c6a-9b13-28d47298eb71,52.47,0,78.24,57.86,51.98,67.02,70.43,67.48,53.59,73.86,82.11,68.94,69.81,77.22,78.16,49.29,69.09,65.79,65.86,66.57,67,16711.3,4479.7,large,164,58,,35,20,,2025-04-16T00:45:31.731712Z,GB_London Metro_v2025-04-16.1.csv
Vancouver,BC,British Columbia,Canada,Canada,2025,,673713,49.2827,-123.1207,30,c0d38b35-0c88-4b99-b04a-d5b66c69cf31,58.54,0,75.69,56.73,51.64,65.37,68.95,71.74,47.52,72.18,80.13,68.55,68,78.12,78.11,61.18,65.64,69.07,59.82,66.51,67,911.5,1337.7,large,165,59,4,12,3,1,2025-04-20T17:41:18.065064Z,CA_Vancouver_v2025-04-20.1.csv
Vienna,ME,Maine,United States,New England,2025,2379025,562,44.5548193,-69.9996825,25,89670ad6-1371-439d-9088-3fec56ee06c7,72.45,63.97,49.11,0,0,56.54,0,0,0,0,0,0,,0,74.96,100,23.72,70.91,0,65.62,66,75.3,10.9,small,172,64,1,60,53,1,2025-03-25T23:02:55.135049Z,ME_Vienna_v2025-03-25.1.csv
Seattle,WA,Washington,United States,Pacific,2025,5363000,741440,47.6193352,-122.3515382,20,08fc4119-d437-4649-a1b5-79e634cb3ec6,68.1,54.74,78.94,41.18,53.8,61.67,69.67,72.17,40.14,61.44,78.54,73.67,66.01,78.69,80.73,62.89,64.98,70.55,49.34,65.54,66,3296.7,910,large,173,61,2,61,3,1,2025-03-18T02:30:37.290045Z,WA_Seattle_v2025-03-18.1.csv
Brighton,UT,Utah,United States,Mountain,2025,4908570,353,40.6106555,-111.6039233,25,8a2637df-f465-4bde-b050-f5796f1c549c,62.58,65.24,0,0,0,65.24,51.82,0,0,0,0,0,51.82,0,0,76.85,91.72,83.05,74.24,66.34,66,101.1,19.4,small,166,61,2,57,50,2,2025-03-21T04:22:43.998975Z,UT_Brighton_v2025-03-21.1.csv
San Luis Obispo,CA,California,United States,Pacific,2025,668154,48039,35.2661952,-120.6684376,25,cfd7cda1-48e1-4f84-8441-1c96838f2a41,65.03,56.09,68.88,28.91,60.24,58.68,67.11,63.25,72.62,47.29,67.29,70.99,66.47,70.91,79,52.12,54.32,63.42,75.35,66.24,66,333.8,63,small,168,62,7,58,51,5,2025-03-13T18:52:30.323047Z,CA_San Luis Obispo_v2025-03-13.1.csv
Whitefish Bay,WI,Wisconsin,United States,Midwest,2025,5586700,14750,43.113137,-87.9004755,25,8d6661f4-cd55-4e3a-8210-52d690a877e6,77,62.22,79.16,0,26.87,54.86,15.08,71.19,0,85.78,76.17,51.01,45.41,81.12,81.9,81.89,83.03,82.18,0,66,66,81.2,17.4,small,169,63,8,59,52,8,2025-03-20T19:02:08.784842Z,WI_Whitefish Bay_v2025-03-20.1.csv
Chester,,Cheshire,England,England,2025,,77833,53.1922,-2.892688964,30,464cb713-32ac-428c-9173-74d6b18c56c5,67.32,0,79.41,7.87,71.54,65.98,70.29,61.67,52.54,73.06,82.51,65.32,68.46,80.53,80.54,59.17,56.57,67.07,47.92,66.31,66,200.8,96.1,medium,167,47,,36,13,,2025-04-17T05:58:16.694801Z,GB_Chester_v2025-04-17.1.csv
Granby,QC,Quebec,Canada,Canada,2025,,78787,45.4032,-72.7341,25,b831f391-5643-4407-9271-3fb84243a061,67.31,0,71.29,75.14,0,72.15,53.47,60.55,44.96,61.37,69.82,66.89,59.37,74.16,79.56,74.23,53.66,71.22,50.75,65.82,66,537.8,231,medium,170,48,8,13,4,3,2025-04-21T18:26:36.953590Z,CA_Granby_v2025-04-21.1.csv
Hounslow,,Greater London,England,England,2025,,436640,51.4686,-0.3613,20,ea6613aa-a7a3-418e-94c3-bb9111823146,55.98,0,78.75,48.62,25.34,57.68,73.08,62.4,57.04,72.26,79.78,54.77,67.65,77.11,79.06,57.53,71.51,69.64,67.72,65.63,66,673,125.5,large,171,60,,37,21,,2025-04-18T04:04:30.952035Z,GB_Hounslow_v2025-04-18.1.csv
Fayette,AL,Alabama,United States,South,2025,125840,4221,33.6942153,-87.831169,25,bc498747-19e8-42b1-bebf-f2ae359ff8cf,70.36,70.38,67.1,57.77,0,67.37,59.25,0,40.7,0,53.06,0,51.16,72.21,70.16,0,61.79,66.94,0,64.86,65,96.6,26.3,small,186,70,1,69,59,1,2025-03-15T13:53:14.653036Z,AL_Fayette_v2025-03-15.1.csv
Glenbrook,NV,Nevada,United States,Mountain,2025,3227900,274,39.1001232,-119.9272889,25,e74ff01b-f133-48e1-8704-d81b261012bb,85.34,88.44,0,0,0,88.44,0,0,0,0,0,0,,0,26.53,0,0,14.15,0,65.22,65,26.4,5.3,small,177,66,2,64,55,2,2025-03-24T19:06:06.850441Z,NV_Glenbrook_v2025-03-24.1.csv
Ankeny,IA,Iowa,United States,Midwest,2025,1902305,70542,41.7301639,-93.6010831,25,bf07a41c-805b-4d2f-8e35-0ca66f87edd9,68.29,61.4,68.23,42.79,0,62.06,58.97,68.27,0,64.75,64.4,62.84,63.28,50.75,77.19,92.72,0,84.44,0,65.4,65,786.4,190.4,medium,174,49,2,62,6,1,2025-03-26T18:53:55.174824Z,IA_Ankeny_v2025-03-26.1.csv
Hoboken,NJ,New Jersey,United States,Mid-Atlantic,2025,3432250,58340,40.7452508,-74.0279257,25,073b50ec-8276-448f-ad61-06688f30a424,47.82,48.38,79.42,0,69.16,58.56,92.71,85.92,86.45,79.87,82.9,0,73.14,75.01,80.28,0,58.62,71.95,63.37,65.06,65,59,3.2,medium,181,50,2,67,7,1,2025-03-24T20:16:12.549435Z,NJ_Hoboken_v2025-03-24.1.csv
Balltown,IA,Iowa,United States,Midwest,2025,1904375,88,42.6372278,-90.8697969,25,01ffef64-9137-4bc1-aa8e-a8e951edae73,47.5,63.28,0,0,0,63.28,0,0,0,0,0,0,,0,85.95,0,0,85.95,0,65.35,65,1,0.6,small,176,65,3,63,54,2,2025-03-26T18:53:54.861878Z,IA_Balltown_v2025-03-26.1.csv
Coupeville,WA,Washington,United States,Pacific,2025,5315185,1934,48.2187947,-122.6794661,25,0ce207e1-1381-4f31-87df-6df24beb3c51,66.41,77.66,40,0,0,58.83,84.05,0,84.05,0,43.91,44.35,64.06,65.53,99.82,45.35,71.04,73.56,0,65.18,65,27,7.9,small,179,67,3,65,56,2,2025-03-20T22:56:56.088316Z,WA_Coupeville_v2025-03-20.1.csv
Davenport,CA,California,United States,Pacific,2025,618086,537,37.0177787,-122.1878849,25,2951e1dc-6af3-43c0-a817-a6a0d07b2365,74.12,71.21,70.31,0,0,70.76,0,0,0,0,0,0,,0,48.65,0,0,48.65,0,65.14,65,20.9,6.4,small,180,68,8,66,57,6,2025-03-13T18:52:38.139910Z,CA_Davenport_v2025-03-13.1.csv
Stevens Point,WI,Wisconsin,United States,Midwest,2025,5577200,25497,44.5252997,-89.5503769,25,d4fceaa4-d457-4930-aa7b-54a650424398,64.68,61.5,65.49,65.05,81.58,67.27,57.89,48,70.89,47.56,60.43,65.39,60.23,67.52,75.75,39.68,60,59.19,71.06,64.87,65,349.6,81,small,185,69,9,68,58,9,2025-03-20T19:02:11.338900Z,WI_Stevens Point_v2025-03-20.1.csv
La Crosse,WI,Wisconsin,United States,Midwest,2025,5540775,51791,43.8246851,-91.2246156,25,bec537ee-978e-4d50-bdf7-a0de3f42d3b2,67.59,59.44,73.27,70.95,59.43,65.43,47.27,41.48,66.52,56.13,57.55,34.2,52.04,70.87,76.2,63.84,67.92,69.8,66.03,64.64,65,477.8,97.3,medium,189,54,10,70,8,1,2025-03-20T19:02:13.671886Z,WI_La Crosse_v2025-03-20.1.csv
Athens,,Attica,Greece,Greece,2025,,919607,37.9838,23.7275,25,bb3080f1-076d-4980-82c4-15e8b6b1f6e0,45.09,0,77.31,57.44,66.42,70.9,73.52,62.39,50.09,76.88,84.79,71.35,70.55,77.02,77.29,32.97,64.45,58.57,66.64,65.39,65,514.3,202.8,large,175,62,,1,1,,2025-04-22T01:55:30.479798Z,GR_Athens_v2025-04-22.1.csv
Enfield,,Greater London,England,England,2025,,404371,51.6548,-0.083599,20,bac4d722-ee5e-4d2f-952a-1267ad452876,49.02,0,77.09,35.22,0,67.79,67.6,61.82,41.53,70.54,80.48,61,64.33,76.48,77.35,65.14,59.42,68.59,64.46,65.21,65,712.1,269.9,large,178,63,,38,22,,2025-04-18T00:30:59.671081Z,GB_Enfield_v2025-04-18.1.csv
Jena,,Thuringia,Germany,Germany,2025,,121994,50.9271,11.5892,31,024d0d55-8776-42e7-9061-ec12b2fc54ff,58.52,0,71.09,56.55,57.91,64.8,68.8,62.9,62.5,67.51,76.46,72.46,69.29,73.71,75.94,53.34,56.45,63.16,59.34,65.03,65,808.7,212.8,medium,182,51,,15,3,,2025-04-24T23:45:16.810160Z,DE_Jena_v2025-04-24.1.csv
Marseille,PAC,Provence-Alpes-Cote d'Azur,France,France,2025,,888776,43.3026,5.3691,25,794cc1ec-6ae0-4131-8034-9a9c6108e500,50.42,0,77.46,73.87,49.98,68.45,70.62,63.32,65.92,76.74,81.93,77.44,73.41,76.04,77.07,21.81,74.79,57.16,60.74,65.03,65,1938.9,474,large,182,64,1,9,5,1,2025-04-22T01:57:56.341155Z,FR_Marseille_v2025-04-22.1.csv
Dublin,,Leinster,Ireland,Ireland,2025,,599094,53.3498,-6.2603,20,ace3a286-5159-4c09-9d62-a1c1dfcc02d1,51.37,0,77,70.25,59.96,70.72,73.75,64.99,66.32,76.05,82.7,75.39,74.1,77.7,78.35,46.74,71.65,65.61,45.24,64.95,65,1502.2,333.6,large,184,65,,1,1,,2025-04-22T07:24:18.939161Z,IE_Dublin_v2025-04-22.1.csv
Kitchener,ON,Ontario,Canada,Canada,2025,,284419,43.4516,-80.4925,30,fed8c2f0-4848-4e69-a7e7-06437655073e,62.81,0,77.7,58.64,43.96,64.39,59.52,70.65,46.73,74,80.8,70.99,66.56,79.45,80.84,72.37,57.39,72.01,42.31,64.68,65,1355,338.3,medium,187,52,1,14,5,1,2025-04-21T03:38:00.677711Z,CA_Kitchener_v2025-04-21.1.csv
Newport,,Monmouthshire,Wales,Wales,2025,,162830,51.5842,2.9977,30,962e594f-492e-4daf-8b0a-6b2285fb08f8,59.8,0,74.54,36,51.58,61.55,66.7,55.13,52.87,67.17,70.98,65.2,63.67,76.83,77.58,76.36,69.18,75.05,52.51,64.67,65,889.3,363.4,medium,188,53,,2,1,,2025-04-25T00:09:10.108011Z,GB_Newport_v2025-04-25.1.csv
City of Manchester,,Greater Manchester,England,England,2025,,737278,53.4626,-2.2182,30,9e83ae2b-67a7-41ba-9e80-f7fa64e0fcdc,54.26,0,78.43,51.72,56.77,67.66,69.52,53.75,52.29,68.34,80.78,59.02,65.62,75.77,78.08,58.55,66.08,68.24,54.49,64.57,65,1150.2,983.9,large,190,66,,39,23,,2025-04-17T16:58:19.977746Z,GB_City of Manchester_v2025-04-17.1.csv
Anchorage,AK,Alaska,United States,Pacific,2025,203000,289069,61.1742503,-149.2843294,25,543069b3-5445-4fd8-97ab-121eaff19b53,68.69,59.87,76.83,58.67,66.58,67.03,59.84,61.78,51.18,61.17,68.03,72.78,62.42,74.7,81.25,90.89,42.89,75.03,37.26,64.24,64,2454.1,468.8,medium,195,55,3,74,9,1,2025-03-15T13:58:27.556255Z,AK_Anchorage_v2025-03-15.1.csv
Sanibel,FL,Florida,United States,South,2025,1263700,6402,26.4510378,-82.1056764,30,87e567bb-aaf3-46af-8f1d-85a44e1ab9ff,73.72,71.44,63.92,0,0,67.68,0,0,0,38.55,63.71,0,56.52,59.43,70.26,78.19,65.43,71.83,58.92,64.43,64,94.7,179.8,small,191,71,2,71,60,2,2025-03-23T01:09:29.598469Z,FL_Sanibel_v2025-03-23.1.csv
Manitou Springs,CO,Colorado,United States,Mountain,2025,848445,4796,38.8575395,-104.9128609,25,36db4794-41f9-491a-b4ee-a1d7ed2b6957,72.6,65.14,75.2,0,0,70.17,9.31,37.14,0,55.49,65.74,20.74,38.34,60.88,83.04,90.95,0,65.05,85.63,64.33,64,80.4,12.4,small,193,73,4,73,62,3,2025-03-15T13:52:41.722373Z,CO_Manitou Springs_v2025-03-15.1.csv
Ames,IA,Iowa,United States,Midwest,2025,1901855,66112,42.0263267,-93.6212645,25,b10a4972-eae5-428d-9100-23c5293a9218,71.58,62.23,57.09,0,86.99,65.73,66.88,46.62,26.01,61.11,79.13,54.41,57.3,51.79,80.87,92.23,63.42,80.48,57.3,63.78,64,571.9,142.7,medium,201,58,4,76,10,2,2025-03-26T18:53:55.502420Z,IA_Ames_v2025-03-26.1.csv
Rochester,MI,Michigan,United States,Midwest,2025,2669020,12939,42.6866389,-83.1197206,25,45e3e3a5-4cda-4e65-b952-76902524d89d,58.95,63.28,53.82,0,75.62,62.34,64.29,55.08,65.69,60.65,70.02,64.59,64.76,69.51,77.3,96.37,0,64.65,0,63.98,64,144.4,18.1,small,199,74,6,75,63,6,2025-03-25T22:54:59.722195Z,MI_Rochester_v2025-03-25.1.csv
Marinette,WI,Wisconsin,United States,Midwest,2025,5549300,11060,45.0867943,-87.6324432,25,69981311-ab7d-40f3-83d5-70f02c49fd31,74.02,68.75,76.61,63.36,58.9,68.99,62.74,59.48,7.88,53.65,64.83,73.1,52.61,66.92,76.23,0,39.17,61.98,0,64.42,64,136.2,33.1,small,192,72,11,72,61,10,2025-03-20T19:02:08.897806Z,WI_Marinette_v2025-03-20.1.csv
Platteville,WI,Wisconsin,United States,Midwest,2025,5563250,11421,42.7279235,-90.4681032,25,f96bd260-af1b-42a3-bc2f-7247eac2f582,76.36,70.17,62.62,0,89.95,71.63,6.07,0,49.9,9.24,69.38,0,39.28,49.83,82.65,90.14,0,86.15,0,63.57,64,135.9,23.3,small,202,75,12,77,64,11,2025-03-20T19:02:08.436140Z,WI_Platteville_v2025-03-20.1.csv
Mexico City,,Ciudad de México,Mexico,Mexico,2025,,8913652,19.432,-99.1331,25,1b50a77d-d746-4774-bc0e-3fa9b8ee0f09,54.7,0,76.88,48.7,57.25,66.5,63.91,53.85,67.88,68.92,80.27,46.77,65.72,62.25,76.12,56.75,72.61,68.46,66.86,64.28,64,13760.4,3392.7,large,194,67,,2,2,,2025-04-22T07:30:03.269776Z,MX_Mexico City_v2025-04-22.1.csv
Calgary,AB,Alberta,Canada,Canada,2025,,1322405,51.0447,-114.0719,25,699dd2ee-1939-47e4-919e-7c636213801c,59.26,0,74.18,47.84,46.13,61.5,63.98,60.45,48.29,65.54,78.43,57.44,63.28,76.75,80.18,76.6,51.48,71.75,54.05,64.23,64,7316.7,2576.3,large,196,68,2,15,4,1,2025-04-20T17:17:27.648912Z,CA_Calgary_v2025-04-20.1.csv
Logroño,,La Rioja,Spain,Spain,2025,,159083,42.4627,2.445,20,e2f9af7f-5440-42a2-a95c-5943b6ea042f,63.84,0,78.19,63.8,53.63,68.42,67.74,58.96,50.41,72.64,79.51,68.89,67,64.19,81.26,53.32,54.01,64.67,54.46,64.16,64,389.3,155.9,medium,197,56,,5,1,,2025-04-21T20:06:08.104142Z,ES_Logroño_v2025-04-21.1.csv
Guadalajara,,Jalisco,Mexico,Mexico,2025,,1445006,20.6597,-103.3496,25,c4c0c598-4bb8-4ae8-b4eb-ac444abed9dc,58.95,0,80.45,74.52,68.84,75.97,56.61,36.95,68.5,81.38,84.03,24.57,61.55,52.98,80.45,55.07,44.48,62.57,69.4,64.09,64,1961.1,727.8,large,198,69,,3,3,,2025-04-22T07:32:23.601908Z,MX_Guadalajara_v2025-04-22.1.csv
Waterloo,ON,Ontario,Canada,Canada,2025,,140499,43.4643,-80.5204,25,8b9be296-e447-4ee6-a018-f3f510e27946,60.47,0,75.99,24.08,43.49,58,66.47,72.36,42.96,72.65,81.07,66.32,66.6,77.76,80.79,60.64,42.99,64.29,57.71,63.95,64,708.6,176.1,medium,200,57,2,16,6,2,2025-04-21T03:45:26.529311Z,CA_Waterloo_v2025-04-21.1.csv
Southampton,,Hampshire,England,England,2025,,268275,50.9105,1.4049,30,01a90ecd-d0a6-4a1e-88b9-603acf34ed97,52.78,0,78.14,51.11,54.37,66.67,68.47,65.35,52.66,72,78.28,72.63,68.43,78.93,78.22,47.81,67.06,64.79,47.12,63.56,64,398.8,455,medium,203,59,,40,14,,2025-04-19T15:41:30.702460Z,GB_Southampton_v2025-04-19.1.csv
Somerville,MA,Massachusetts,United States,New England,2025,2562535,80549,42.3904453,-71.1010331,25,bcde3e82-c9e0-4838-b305-bacf707b5d0d,56.87,40.14,75.6,37.28,58.69,55.98,59.61,67.59,63.19,68.07,62.09,66.15,63.57,77.14,76.94,75.45,26.8,63.88,63.36,63.1,63,193.6,39.8,medium,209,62,3,80,11,2,2025-03-23T22:17:09.028073Z,MA_Somerville_v2025-03-23.1.csv
Queens,NY,New York,United States,Mid-Atlantic,2025,3651000,8516202,40.6627117,-73.9386769,25,5e69898b-0371-4643-a8c5-a4e49a13fbce,62.32,55.76,76.93,31.54,36.42,56.88,70.49,66.38,54.67,74.46,82.3,53.67,67.74,71.41,77.94,55.89,38.98,60.48,59.62,63,63,3597.8,1078.7,large,211,71,3,82,4,2,2025-03-22T04:37:50.428476Z,NY_Queens_v2025-03-22.1.csv
Athens,OH,Ohio,United States,Midwest,2025,3902736,23211,39.3262858,-82.1001865,25,46ca885c-e589-4e1c-b3f6-988b783d44e8,62.93,57,42.37,0,85.39,57.62,69.7,41.43,68.61,55.41,62.15,67.28,62.98,68.89,71.09,86.89,33.15,67.14,60.78,63.08,63,243.4,61.9,small,210,78,5,81,67,5,2025-03-22T04:02:54.722588Z,OH_Athens_v2025-03-22.1.csv
Harbor Springs,MI,Michigan,United States,Midwest,2025,2636560,1015,45.4324845,-84.9891001,25,9dc1bf33-6f43-406e-bd5d-5d747eb8c162,71.2,59.54,74.55,0,0,67.05,0,0,0,1.74,69.97,79.1,59.06,44.34,74.57,0,0,74.57,0,63.22,63,28.4,11.7,small,207,77,7,79,66,7,2025-03-25T22:54:54.431399Z,MI_Harbor Springs_v2025-03-25.1.csv
Ludington,MI,Michigan,United States,Midwest,2025,2649640,7664,43.9571957,-86.4429369,25,6ee18672-f91a-4c9b-b1aa-00062f657eac,67.49,62.87,49.1,0,0,55.99,3.86,75.15,72.27,66.02,42.47,70.82,50.58,72.12,65.14,0,0,65.14,70.04,62.53,63,99,22.9,small,216,81,8,86,70,8,2025-03-25T22:54:54.861782Z,MI_Ludington_v2025-03-25.1.csv
Isla Vista,CA,California,United States,Pacific,2025,636868,13717,34.412179,-119.8606574,25,ac230bbd-b5f4-4375-a2fb-133d1440a0f6,89.88,69.15,84.07,100,100,83.63,60,25.65,0,25.65,38.47,100,52.18,59.24,86.14,100,91.3,92.28,0,63.37,63,28.6,0.5,small,206,76,9,78,65,7,2025-03-13T18:52:44.943253Z,CA_Isla Vista_v2025-03-13.1.csv
San Francisco,CA,California,United States,Pacific,2025,667000,836321,37.7272391,-123.0322294,25,5e7734a7-7341-4381-90ee-ddd4465d05ac,59.25,46.92,75.64,50.52,55.19,58.99,61.86,63.86,50.97,64.09,77.87,65.07,64.59,73.59,76.26,45.85,59.05,61.31,58.34,62.59,63,1842.3,539,large,215,73,10,85,5,1,2025-03-13T18:52:45.343938Z,CA_San Francisco_v2025-03-13.1.csv
Monona,WI,Wisconsin,United States,Midwest,2025,5553675,8604,43.0538731,-89.3335133,25,3ad1ab3c-e88b-465b-aa9b-b4dcfed0e15e,73.68,46.52,80.58,0,0,63.55,7.87,69.2,0,57.79,68.79,47.82,48.3,70.93,82.8,29.87,75.35,62.41,0,62.85,63,66.6,23.6,small,213,79,13,83,68,12,2025-03-20T19:02:10.532561Z,WI_Monona_v2025-03-20.1.csv
Sun Prairie,WI,Wisconsin,United States,Midwest,2025,5578600,36455,43.1826223,-89.2378239,25,f79452be-9ab2-4900-b419-90876dc9d134,66.79,64.5,77.34,0,0,70.92,40.72,52.12,0,49.93,66.78,35.86,40.42,68.59,80.98,85.37,37.75,71.71,0,62.74,63,356.8,53.2,small,214,80,14,84,69,13,2025-03-20T19:02:12.339926Z,WI_Sun Prairie_v2025-03-20.1.csv
York,,North Yorkshire,England,England,2025,,218338,53.9562,-1.087115415,30,4ac70839-8c3e-47b5-bb5e-e590e6ae4797,58.01,0,71.38,47.75,59.61,64.12,67.83,63.67,71.85,67.43,73.5,72.66,70.32,75.4,73.52,62.87,68.69,68.59,41.35,63.39,63,664.5,618.6,medium,204,60,,41,15,,2025-04-19T15:31:05.795862Z,GB_York_v2025-04-19.1.csv
Madrid,,Madrid,Spain,Spain,2025,,3406515,40.4167,3.7033,20,6f9678f0-6435-4271-9dec-78066fab071b,48.04,0,74.24,50.56,53.38,64.18,67.64,63.27,58.1,72.66,79.3,69.87,69.05,69.02,75.86,50.52,61.48,63.4,64.4,63.38,63,3940.2,1958,large,205,70,,6,5,,2025-04-21T20:06:50.888075Z,ES_Madrid_v2025-04-21.1.csv
St Albans,,Hertfordshire,England,England,2025,,76729,51.7537,-0.323569733,30,516d8c6d-8e0e-465c-a5c1-f76febf02509,53.12,0,79.07,61.34,0,75.13,61.91,56.82,33.44,66.57,62.32,68.03,57.19,77.42,77.83,59.45,43.87,62.91,51.14,63.15,63,98.6,168.8,medium,208,61,,42,16,,2025-04-18T22:41:32.975784Z,GB_St Albans_v2025-04-18.1.csv
Christchurch,,Canterbury,New Zealand,New Zealand,2025,,352836,-43.5257,172.63,25,e99c4bf2-700b-4847-b35d-032ecb6c5cce,60.35,0,76.52,44.78,66.77,68.64,62.33,57.85,52.69,63.16,70.78,71.38,63.51,75.92,80.16,65.8,54.36,68.68,38.71,62.98,63,1879.1,1744.9,large,212,72,,1,1,,2025-04-22T02:03:57.648151Z,NZ_Christchurch_v2025-04-22.1.csv
West Chester,PA,Pennsylvania,United States,Mid-Atlantic,2025,4282704,19235,39.9598829,-75.6054217,25,1fd7d4fb-88f7-4f46-a84d-0931a837e64c,59.32,49.6,59.77,0,66.77,57.37,51.93,49.43,60.78,54.5,52.54,71.77,56.84,68.86,72.13,0,67.77,70.45,64.66,62.34,62,47.3,15.9,small,219,83,2,87,71,2,2025-03-22T00:58:13.959700Z,PA_West Chester_v2025-03-22.1.csv
St. Paul,MN,Minnesota,United States,Midwest,2025,2758000,307762,44.948901,-93.1040631,20,5cd742b5-a26d-4b24-8dea-bb2b5ee4e41c,63.23,52.52,73.59,58.24,59.65,61.89,53.36,49.92,22.93,43.63,78.32,63.95,53.79,76.8,79.57,77.15,49.88,71.3,45.39,61.64,62,1646.4,502.7,large,226,78,2,90,6,2,2025-03-23T22:34:02.913184Z,MN_St. Paul_v2025-03-23.1.csv
Petersburg,AK,Alaska,United States,Pacific,2025,260310,3346,56.7569178,-132.8749383,25,e744270c-4183-4772-a4f9-337392903134,67.67,58.76,58.86,0,0,58.81,0,0,54.65,2.53,56.64,64.52,50.03,0,55.38,100,0,76.2,0,61.93,62,77.9,19.1,small,222,84,4,88,72,3,2025-03-15T13:58:27.994421Z,AK_Petersburg_v2025-03-15.1.csv
Salt Lake City,UT,Utah,United States,Mountain,2025,4967000,203888,40.7769281,-111.9309915,20,f4b9d084-79e5-4982-9a2a-45f94f4e6ac2,65.56,46.47,76.28,25.05,50.64,55.6,54.14,57.48,49.36,60.09,72.75,63.45,60.16,75.5,78.9,81.85,36.16,69.25,45.71,61.56,62,1526.6,459.6,medium,228,64,3,91,12,1,2025-03-21T04:22:43.424472Z,UT_Salt Lake City_v2025-03-21.1.csv
Portsmouth,OH,Ohio,United States,Midwest,2025,3964304,17919,38.753376,-82.9494656,25,52739406-73ac-4573-8f59-07b5d7b97b88,61.56,61.15,61.65,0,54.1,59.78,71.03,0,71.64,45.2,49.88,77.43,63.49,61.42,66.26,0,58.33,63.21,0,61.86,62,172.5,56.4,small,223,85,6,89,73,6,2025-03-22T04:02:48.219601Z,OH_Portsmouth_v2025-03-22.1.csv
Brent,,Greater London,England,England,2025,,516284,51.5531,-0.3023,20,f0dc710e-b01d-4b40-b1f8-80fe70f73d59,48.87,0,77.46,65.26,23.11,58.86,70.97,66.87,42.11,74,82.77,64.09,67.01,77.22,78.07,21.17,63.63,54.55,67.92,62.46,62,443.1,204.8,large,217,74,,43,24,,2025-04-16T23:05:40.138250Z,GB_Brent_v2025-04-16.1.csv
Heusden-Zolder,,Limburg,Belgium,Belgium,2025,,43620,51.0349,5.2818,25,dc394356-c6e1-4c7b-882f-be8e0a6fc6b8,59.4,0,69.59,54.63,0,66.27,53.14,39.94,58.34,56.52,69.26,71.07,59.92,59.38,72.65,69.91,74.88,72.25,57.06,62.45,62,357.5,106.3,small,218,82,,11,3,,2025-04-22T01:18:25.998044Z,BE_Heusden-Zolder_v2025-04-22.1.csv
Glasgow,,Glasgow,Scotland,Scotland,2025,,656221,55.8617,4.2583,20,f123a53e-0bd9-4b5e-b3d9-0ff1e0233901,45.51,0,75.67,51.99,48.98,63.81,58.98,56.33,52.1,67.2,74.8,57.54,61.9,75.03,77.02,48.08,60.24,62.7,64.51,62.3,62,1833.8,916.6,large,220,75,,2,2,,2025-04-22T07:26:26.662289Z,GB_Glasgow_v2025-04-22.1.csv
Edmonton,AB,Alberta,Canada,Canada,2025,,1041160,53.5461,-113.4938,25,843199fc-231c-400a-a281-d978ebf08154,58.36,0,71.69,48.28,52.18,62.09,49.64,50.33,37.68,59.79,72.62,55.91,55.02,76.27,78.46,77.35,52.82,71.66,51.04,62.02,62,4984.5,2497,large,221,76,3,17,5,2,2025-04-20T17:16:25.572960Z,CA_Edmonton_v2025-04-20.1.csv
Terrebonne,QC,Quebec,Canada,Canada,2025,,157784,45.693,-73.6331,25,ee5f9d5b-82be-41d5-b8d6-39ab2fd68110,63.66,0,72.84,61.5,57.26,66.3,58.22,55.42,65.48,63.69,67.52,54.31,61.68,72.75,78.85,45.47,28.57,54.6,50.16,61.77,62,774.9,250.6,medium,224,63,9,18,7,4,2025-04-21T18:28:00.677406Z,CA_Terrebonne_v2025-04-21.1.csv
Redbridge,,Greater London,England,England,2025,,424142,51.5823,0.0716,20,d92af603-3840-4237-a25c-f4248b734153,48.53,0,77.36,43.25,44.72,62.07,67.44,56.65,31.19,72.32,81.16,71.04,63.57,77.21,76.7,18.51,67.67,54.08,64,61.7,62,677.1,151.7,large,225,77,,44,25,,2025-04-18T18:11:14.141911Z,GB_Redbridge_v2025-04-18.1.csv
Medellín,,Antioquia,Colombia,Colombia,2025,,2659745,6.2476,-75.5658,25,36f03f21-be28-402c-ab50-13f194babd40,54.21,0,76.22,65.94,58.86,69.3,60.72,46.26,65.13,69.11,78.5,67.58,66.47,54.7,72.45,51.61,58.58,61.69,59.26,61.63,62,2348,729.4,large,227,79,,2,2,,2025-04-24T23:38:19.255583Z,CO_Medellín_v2025-04-24.1.csv
Chelsea,QC,Quebec,Canada,Canada,2025,,25044,45.5402,-75.8675,25,6f511bb4-6061-444f-ab9c-3738b5b2a1a5,57.68,0,68.39,54.61,0,65.33,42.49,52.09,0,46.69,59.9,55.78,52.15,74.09,80.7,75.92,49.55,71.24,50.59,61.54,62,391,119.3,small,229,86,10,19,7,4,2025-04-21T18:25:39.350657Z,CA_Chelsea_v2025-04-21.1.csv
Rutland,VT,Vermont,United States,New England,2025,5061225,15747,43.6096702,-72.9777884,25,9ad8c9b3-a7cc-40c6-a196-f61552b41f8a,68.12,61.23,71.76,0,56.65,64.31,60.12,0,9.83,54.67,74.45,61.55,52.56,38.21,73.91,78.98,47.36,69.05,77.93,61.37,61,174.9,26.3,small,231,88,1,92,74,1,2025-03-22T00:30:23.672238Z,VT_Rutland_v2025-03-22.1.csv
Burlington,VT,Vermont,United States,New England,2025,5010675,44649,44.491927,-73.2388823,25,bc6d65e8-452a-497c-8040-8af93c708a85,56.96,55.8,69.02,61.46,68.28,63.49,63.45,55.13,69.25,58.65,56.07,73.16,62.91,70.93,74.86,66.71,62.94,69.03,40.09,60.83,61,254.6,52.3,small,247,93,2,100,78,2,2025-03-22T00:30:23.154282Z,VT_Burlington_v2025-03-22.1.csv
Aberdeen,SD,South Dakota,United States,Midwest,2025,4600100,28297,45.4646777,-98.468104,25,099dc331-57bf-4a76-8734-ae3401de54e5,65.07,47.87,73.21,0,71.62,63,24.99,35.88,44.9,39.33,23.07,26.72,31.27,69.45,76.14,93.84,0,84.4,0,60.81,61,295,105.2,small,248,94,2,101,79,2,2025-03-22T01:40:09.909405Z,SD_Aberdeen_v2025-03-22.1.csv
Asbury Park,NJ,New Jersey,United States,Mid-Atlantic,2025,3401960,15239,40.2228837,-74.0102318,25,07986ea1-7e51-4def-afdf-ac94719b1ab6,73.86,69.51,84.88,0,0,77.2,36.65,0,46.9,9.08,63.01,78.39,45.13,59.61,78.65,0,0,48.4,59.75,60.71,61,60.5,12.2,small,250,95,3,102,80,2,2025-03-24T20:16:09.772333Z,NJ_Asbury Park_v2025-03-24.1.csv
Portland,OR,Oregon,United States,Pacific,2025,4159000,642715,45.5369506,-122.649971,20,1682783f-52b4-47aa-91c2-0153751c9f3f,62.44,50.04,73.79,44.34,52.92,58.36,64.99,62.01,45.4,56.21,71.31,72.12,62.55,74.14,77.87,63.48,53.9,66.84,42.64,61.09,61,3967,871.6,large,243,84,3,98,8,1,2025-03-22T02:03:17.940933Z,OR_Portland_v2025-03-22.1.csv
Dillon,MT,Montana,United States,Mountain,2025,3020800,4020,45.2178756,-112.6345797,25,016d185b-5cbc-40f7-8448-ef19d5fdedfd,69.56,60.08,75.11,0,69.16,67.94,0,0,3.93,0,66.58,0,38.74,63.87,68.16,0,0,68.16,0,60.68,61,56.7,12.9,small,252,97,4,104,82,4,2025-03-24T23:53:41.450291Z,MT_Dillon_v2025-03-24.1.csv
New York,NY,New York,United States,Mid-Atlantic,2025,3651000,8516202,40.6627117,-73.9386769,25,35938190-d9a0-43d0-b3ed-a6299962b145,55.23,50.49,74.37,39.09,46.83,56.98,66.86,58.99,55.59,70.02,78.3,59.01,65.82,63.71,76.08,0,43.62,63.6,62.48,61.31,61,9417.4,3123.4,large,235,80,4,95,7,3,2025-02-21T01:25:06.077737Z,NY_New York_v2025-02-21.1.csv
Salida,CO,Colorado,United States,Mountain,2025,867280,5786,38.5299086,-105.9980177,25,d1902f75-68b3-4894-81b6-13269834ef30,69.68,70.68,69.75,0,0,70.22,0,0,3.42,0,70.65,0,40.77,60.21,75.62,60.08,0,68.37,0,61.1,61,91.3,20.7,small,242,92,5,97,77,4,2025-03-15T13:52:51.549339Z,CO_Salida_v2025-03-15.1.csv
Park City,UT,Utah,United States,Mountain,2025,4958070,8365,40.6573283,-111.4937559,25,8c6e2f16-6539-40e8-8e53-875cb2261a32,68.22,61.05,57.03,0,0,59.04,0,36.3,8.27,77.21,66.1,0,34.74,77.5,74.58,88.86,0,81.24,52.63,60.69,61,516,48.2,small,251,96,4,103,81,3,2025-03-21T04:22:43.771123Z,UT_Park City_v2025-03-21.1.csv
Lompoc,CA,California,United States,Pacific,2025,642524,43819,34.6626889,-120.470837,25,0af68641-b8de-4060-8ef4-ea700f14911a,66.25,62.65,62.26,15.11,0,56.54,60.85,0,77.47,4.68,61.27,69.94,59.93,60.11,66.54,79.95,45.62,66,0,61.35,61,240.2,38.5,small,232,89,11,93,75,8,2025-03-13T18:52:33.991327Z,CA_Lompoc_v2025-03-13.1.csv
Santa Monica,CA,California,United States,Pacific,2025,670000,91535,34.0109107,-118.4982446,25,62847f2e-fb07-419a-92ea-128db7e2311d,58.99,51.91,73.56,67.53,58.88,62.44,72.86,73.25,58.98,72.11,80.28,72.34,71.83,74.8,74.38,32.28,52.88,54.27,40.53,61.14,61,266.4,96.4,medium,241,67,12,96,13,3,2025-03-13T18:52:28.116298Z,CA_Santa Monica_v2025-03-13.1.csv
Baraboo,WI,Wisconsin,United States,Midwest,2025,5504625,12506,43.468072,-89.738387,25,affb9bdc-f822-4820-8333-b07269c0b521,69.05,63.95,72.12,0,60.32,66.32,0,65.07,65.79,1.06,24.13,0,39.7,65.1,77.01,0,63.98,72,0,61.33,61,156.3,24.7,small,234,91,15,94,76,14,2025-03-20T19:02:10.673596Z,WI_Baraboo_v2025-03-20.1.csv
Madison,WI,Wisconsin,United States,Midwest,2025,5548000,275568,43.0878147,-89.4298563,20,214440b5-9476-42e2-bd5c-03af10576b28,64.75,53.81,62.22,34.56,55.5,55.17,53.87,52.72,56.71,49.37,63.59,64.66,57.92,67.76,78.77,71.3,53.4,69.81,53.08,60.93,61,1877.1,476,medium,245,69,16,99,14,2,2025-03-20T19:02:16.752534Z,WI_Madison_v2025-03-20.1.csv
Val di Sole,,Trentino,Italy,Italy,2025,,16013,46.3164,10.7988,25,60457aa7-4d40-44f8-969f-2bce62bee129,65.69,0,54.39,0,0,42.3,50.09,82.85,21.11,51.38,73.24,30.12,50.49,64.85,80.56,86.11,32.06,70.38,85.32,61.49,61,851,123.2,small,230,87,,6,1,,2025-04-22T19:47:45.323298Z,IT_Val di Sole_v2025-04-22.1.csv
Manacor,,Majorca,Spain,Spain,2025,,45927,39.5697,3.2095,31,72e577fd-5497-49f1-af15-e7f6e8242268,65.15,0,64.17,73.36,69.96,67.37,57.57,67.31,49.63,65.28,75.78,72.1,64.46,69.82,72.17,16.96,76.55,53.94,44.32,61.35,61,396.2,360.5,small,232,89,,7,1,,2025-04-25T00:06:17.229105Z,ES_Manacor_v2025-04-25.1.csv
Swansea,,Swansea,Wales,Wales,2025,,255673,51.6214,3.9436,20,b9b5aa7f-0855-4ae4-b75d-daa9ddf95a6d,58.56,0,73.21,49.89,60.44,65.69,55.32,53.52,50.19,61.05,72.99,61.3,60,67.38,75.27,66.59,49.59,65.81,49.39,61.31,61,1242.4,522.6,medium,235,65,,3,2,,2025-04-22T07:27:45.412947Z,GB_Swansea_v2025-04-22.1.csv
Zapopan,,Jalisco,Mexico,Mexico,2025,,1453779,20.7203,-103.3919,25,3cc80509-3e24-432e-84ef-be5f0b2551b3,62.75,0,80.6,72.39,56.39,71.89,43.66,34.45,62.39,68.31,79.91,42.64,57.86,47.98,78.04,74.98,38.45,67.07,57.58,61.26,61,5352.3,831.1,large,237,81,,4,4,,2025-04-22T07:32:09.141848Z,MX_Zapopan_v2025-04-22.1.csv
Barking and Dagenham,,Greater London,England,England,2025,,257152,51.5328,0.1085,20,28c02dad-de97-4b6e-bfca-f8352563463d,48.91,0,77.48,56.38,22.2,57.22,70.35,46,39.38,70.91,79.38,58.5,62.26,75.81,76.49,35.87,69.43,60.51,63.45,61.2,61,421.6,98.1,medium,238,66,,45,17,,2025-04-16T01:04:13.675656Z,GB_Barking and Dagenham_v2025-04-16.1.csv
City of Nottingham,,Nottinghamshire,England,England,2025,,397568,52.954,1.155,30,72aaf55a-0767-4e3f-ad5c-0090adbb3ca0,47.49,0,77.01,51.11,58.79,67.42,73.69,67.5,47.6,73.51,79.32,75.92,69.58,77.21,77.86,39.99,74.78,63.84,36.76,61.2,61,718.6,554.1,large,238,82,,45,26,,2025-04-19T15:33:05.235556Z,GB_City of Nottingham_v2025-04-19.1.csv
Quebec City,QC,Quebec,Canada,Canada,2025,,584295,46.817,-71.217,25,3b5ac34f-9d6e-43c9-948b-548f700fe197,58.85,0,75.6,52.99,52.48,65.01,56.72,46.26,50.57,68.45,76.17,59.84,60.95,69.66,78.92,67.83,54.97,69.05,42.18,61.15,61,2894.5,894.9,large,240,83,11,20,6,3,2025-04-21T18:23:54.840835Z,CA_Quebec City_v2025-04-21.1.csv
Preston,,Lancashire,England,England,2025,,162291,53.7592,2.7046,30,f6601464-c581-4f42-944b-9325974e1e9a,55.86,0,75.89,52.84,52.75,65.22,66.93,57.19,52.26,67.66,72.03,72.46,65.2,74.86,75.95,53.16,67.22,65.79,35.92,60.95,61,614.1,372.7,medium,244,68,,47,18,,2025-04-19T15:31:33.650822Z,GB_Preston_v2025-04-19.1.csv
Red Deer,AB,Alberta,Canada,Canada,2025,,104603,52.269,-113.8116,30,6d6a1cb8-dd25-4262-b55d-6f817b66b656,69.85,0,76.09,41.97,0,68.51,44.07,58.83,44.31,69.28,77.22,61.8,59.06,80.67,84.46,85.61,36.64,72.91,12.33,60.88,61,486.3,645.2,medium,246,70,4,21,8,1,2025-04-20T17:16:52.989365Z,CA_Red Deer_v2025-04-20.1.csv
Sutton,,Greater London,England,England,2025,,252310,51.3604,-0.1907,20,cb604937-0360-45f3-8f45-d12f171edf36,45.31,0,76,52.96,0,49.07,64.86,68.51,52.81,74.11,81.31,59.52,67.05,75.84,76.78,50.83,63.73,64.44,64.97,60.81,61,478.7,117.5,medium,248,71,,48,19,,2025-04-18T22:43:16.235332Z,GB_Sutton_v2025-04-18.1.csv
Warwick,,West Midlands,England,England,2025,,40561,41.7001,71.4162,30,99caf219-f293-4bfb-beb7-c95d2710cc24,46.22,0,72.02,38.98,0,64.68,64.46,46.05,59.67,65.96,73.54,66.76,64.43,76,76.06,39.01,58.73,58.76,50.41,60.53,61,91.1,129.1,small,253,98,,49,4,,2025-04-19T15:42:47.566156Z,GB_Warwick_v2025-04-19.1.csv
Buckley,WA,Washington,United States,Pacific,2025,5308570,5306,47.1622395,-122.020272,25,b20e7dc2-2522-46a8-816e-361bf0ac19ea,59.74,53.14,39.48,0,0,46.31,71.5,66.12,0,66.12,80.73,66.05,72.02,57.95,66.56,68.78,66.17,67.24,0,60.48,60,58.3,18.9,small,254,99,4,105,83,3,2025-03-20T22:56:50.718584Z,WA_Buckley_v2025-03-20.1.csv
North Wildwood,NJ,New Jersey,United States,Mid-Atlantic,2025,3453490,3620,39.0059437,-74.7975051,15,c08d6e42-8fd6-4c46-8d6a-9ec399db588f,76.11,77.41,64.18,0,0,70.8,0,0,0,0,63.34,0,24.36,79.54,85.66,0,26.75,63,53.48,59.85,60,62.6,15.3,small,264,107,4,112,90,3,2025-03-24T20:16:08.470494Z,NJ_North Wildwood_v2025-03-24.1.csv
Helena,MT,Montana,United States,Mountain,2025,3035600,33126,46.5965556,-112.0217649,25,ad261b0b-bfea-4208-8854-22e0ed899801,66.86,59.09,67.52,55.73,0,62.36,64.7,64.62,50.79,45.14,61.48,59.99,58.44,73.15,78.05,79.94,36.4,68.3,33.33,60.41,60,477.5,105.9,small,257,102,5,107,85,5,2025-03-24T23:53:40.364294Z,MT_Helena_v2025-03-24.1.csv
Reed City,MI,Michigan,United States,Midwest,2025,2667820,2505,43.8727541,-85.5070057,25,0e65abf1-dcfb-4352-9ba0-849aeb3c6fff,57.61,55.53,45.44,0,0,50.49,0,0,57.31,0,72.15,0,65.55,55.98,57.27,90.32,0,72.69,0,60.18,60,41.5,8.5,small,259,103,9,108,86,9,2025-03-25T22:55:07.000426Z,MI_Reed City_v2025-03-25.1.csv
Cadillac,MI,Michigan,United States,Midwest,2025,2612320,10404,44.2459403,-85.4311245,25,85f15410-b660-4714-adf2-4c0ff7c46b0c,67.26,60.57,64.98,2.17,0,55.2,48.98,0,59.46,52.35,66.38,51.88,57,54.41,61.96,79.68,0,70.23,55.83,59.6,60,135.9,37.8,small,265,108,10,113,91,10,2025-03-25T22:54:55.732476Z,MI_Cadillac_v2025-03-25.1.csv
Albany,CA,California,United States,Pacific,2025,600674,19768,37.8906499,-122.3181164,25,6647f9ae-87b3-422a-aa8d-c3168340c23e,58.77,50.46,75.8,55.73,38.24,57.41,58.64,76.09,0,65.24,72.78,59.95,53.05,74.39,76.19,64.47,58.13,67.57,54.79,60.42,60,61.9,20.5,small,256,101,13,106,84,9,2025-03-13T18:52:20.121163Z,CA_Albany_v2025-03-13.1.csv
Seaside,CA,California,United States,Pacific,2025,670742,31964,36.6250576,-121.8178044,25,af1ea22e-cf36-43d5-b122-10549253ffc6,68.57,56.01,73.07,0,28.04,50.79,47.03,67.76,0,3.47,68.83,78.2,56.83,58.6,78.56,47.79,67.48,65.02,64.76,60.07,60,197.8,56.4,small,260,104,14,109,87,10,2025-03-13T18:52:40.502553Z,CA_Seaside_v2025-03-13.1.csv
Evansville,WI,Wisconsin,United States,Midwest,2025,5524550,5771,42.7782304,-89.2947859,25,84c9c088-8ec0-47a5-8115-fef98cad1174,66.77,63.34,67.72,0,0,65.53,12.05,67.72,0,67.72,7.85,67.25,35.01,70.03,69.74,0,68.61,69.31,0,60.03,60,59.1,13.7,small,262,105,17,110,88,15,2025-03-20T19:02:17.481185Z,WI_Evansville_v2025-03-20.1.csv
Verona,WI,Wisconsin,United States,Midwest,2025,5582600,14499,42.9912653,-89.5392468,25,afa6786e-1c7a-407a-bde8-16876f1af3f4,57.26,51.64,57.43,0,0,54.54,45.45,60.61,39.64,50.12,56.04,29.34,46.5,67.69,79.13,81.2,0,80.1,0,59.96,60,155.8,46.7,small,263,106,18,111,89,16,2025-05-05T17:43:42.185545Z,WI_Verona_v2025-05-05.1.csv
Devon,AB,Alberta,Canada,Canada,2025,,8667,53.3633,-113.7322,31,8ec0e504-67e4-4635-92d0-b22f1e6353be,72.51,0,59.07,0,0,59.07,0,91.38,59.13,91.38,75.18,0,75.23,79,86.93,42.78,48.51,61.87,10.58,60.45,60,50,54.6,small,255,100,5,22,8,2,2025-05-06T01:28:18.529048Z,CA_Devon_v2025-05-06.1.csv
Leeds,,West Yorkshire,England,England,2025,,818511,53.7941,-1.554969155,20,adb02e3e-d4f1-4926-b6b2-ace7fd45c17b,50.1,0,73.85,55.66,45.72,62.4,62.13,53.03,44.58,65.46,71.46,72.72,61.96,74.67,76.41,48.52,60.4,62.65,49.16,60.36,60,3589.1,1217.4,large,258,85,,50,27,,2025-04-18T04:07:34.503365Z,GB_Leeds_v2025-04-18.1.csv
Gloucester,,Gloucestershire,England,England,2025,,143105,51.8642,2.2382,30,8b0483e6-8336-4ba1-93ad-f3e1189204e8,55.75,0,76.58,15.95,42.19,56.67,59.66,58.1,45.13,62.83,79.42,52.49,60.78,78.36,78.78,50.14,66.24,65.62,44.09,60.06,60,272,449.9,medium,261,72,,51,20,,2025-04-19T15:43:17.375634Z,GB_Gloucester_v2025-04-19.1.csv
Haverford College,PA,Pennsylvania,United States,Mid-Atlantic,2025,4233154,1575,40.0092624,-75.3073763,25,5feb04ab-5980-4a55-ba21-cdb2f9097038,44.14,50.17,69.58,64.76,85.79,65.55,51.05,64.83,52.62,44.4,62.82,0,55.72,65.6,74.61,0,52.62,66.15,58.5,59.41,59,5.3,1.3,small,267,109,3,115,92,3,2025-03-22T00:58:16.582985Z,PA_Haverford College_v2025-03-22.1.csv
Grand Forks,ND,North Dakota,United States,Midwest,2025,3832060,58882,47.9195946,-97.087328,25,d85534c0-1d6e-4366-bfa9-155c20dad334,71.53,59.46,69.45,69.72,49.99,62.09,17.17,37.27,36.5,62.35,75.44,65.22,49.34,75.37,79.89,73.67,0,76.99,23.69,59.42,59,550.1,105.9,medium,266,73,3,114,15,1,2025-03-24T23:04:24.508379Z,ND_Grand Forks_v2025-03-24.1.csv
West Fargo,ND,North Dakota,United States,Midwest,2025,3884780,39325,46.8563795,-96.9048092,25,0a2a3387-151b-41b2-8864-1808713882e3,72.4,54.98,71.49,0,0,49.18,18.88,49.91,12.33,25.21,57.89,21.89,31.51,71.08,81.49,88.8,0,84.9,0,59.29,59,393.6,89.3,small,268,110,4,116,93,3,2025-03-24T23:04:24.291063Z,ND_West Fargo_v2025-03-24.1.csv
Birdsboro,PA,Pennsylvania,United States,Mid-Atlantic,2025,4206504,5090,40.2623285,-75.8101125,25,18c768b7-4612-44d5-9308-94627441520c,71.97,46.29,27.32,0,0,36.81,0,0,0,0,87.27,0,87.27,0,70.3,1.68,0,38.28,0,59.08,59,36.5,8.5,small,275,116,4,122,98,4,2025-03-22T00:58:10.819791Z,PA_Birdsboro_v2025-03-22.1.csv
Fargo,ND,North Dakota,United States,Midwest,2025,3825700,129064,46.8647005,-96.8290805,25,09dad916-35b1-4292-9b67-b4f993407511,60.58,54.17,63.1,9.35,65.3,55.04,30.49,49.82,34.23,53.47,70.74,52.84,48.88,71.02,77.01,88.71,54.83,75.56,48.22,59.09,59,1065.8,287.4,medium,273,74,5,120,16,2,2025-03-24T23:04:24.127331Z,ND_Fargo_v2025-03-24.1.csv
Philadelphia,PA,Pennsylvania,United States,Mid-Atlantic,2025,4260000,1582432,40.0093755,-75.1333459,25,e409506e-5214-4a7d-896c-bfd9d3c538bb,59.45,46.87,72.5,49.33,50,56.71,53.28,29.57,51.89,62.68,70.36,70.84,58.48,69.25,74.58,41.2,47.12,56.03,54.28,58.89,59,3684.4,1204.6,large,281,86,5,127,9,1,2025-03-18T21:29:20.285426Z,PA_Philadelphia_v2025-03-18.1.csv
Deer Trail,CO,Colorado,United States,Mountain,2025,819630,1180,39.6170001,-104.043851,30,2ab6f5c0-3147-42d3-bf1c-b456c932c08d,57.2,66.8,67.62,0,0,67.21,0,0,0,0,0,0,,43.96,65.3,0,0,65.3,0,59.09,59,10.7,18.7,small,273,115,6,120,97,5,2025-03-15T13:52:46.604744Z,CO_Deer Trail_v2025-03-15.1.csv
Grand Haven,MI,Michigan,United States,Midwest,2025,2633340,10966,43.054969,-86.2193493,25,1efab5a8-c104-4854-91ac-61fecc5c77cf,61.41,60.8,68.83,8.46,0,57.77,61.91,45.23,58.6,38.27,57.18,8.38,48,73.8,76.55,40.52,0,59.74,0,59.29,59,123.8,35.8,small,268,110,11,116,93,11,2025-03-25T22:54:59.923437Z,MI_Grand Haven_v2025-03-25.1.csv
New Buffalo,MI,Michigan,United States,Midwest,2025,2657220,1306,41.7913818,-86.7425435,25,701cc513-23e8-461d-ac97-a5422ebf547e,64.22,48.87,67.4,0,0,58.14,30.8,66.92,0,66.92,66.92,0,55.81,46.76,64.8,0,0,64.8,66.92,59.2,59,51.7,9.1,small,270,112,12,118,95,12,2025-03-25T22:55:06.785274Z,MI_New Buffalo_v2025-03-25.1.csv
Frankenmuth,MI,Michigan,United States,Midwest,2025,2630200,5108,43.3328316,-83.7391291,25,7e8f8304-9c63-49e0-afad-723cf0fe6a4d,64.44,59.14,65.28,0,0,62.21,67.51,0,0,19.61,80.78,56.67,63.08,59.64,41.18,0,0,41.18,0,58.64,59,63.2,18,small,285,122,13,128,103,13,2025-03-25T22:54:56.210836Z,MI_Frankenmuth_v2025-03-25.1.csv
El Cerrito,CA,California,United States,Pacific,2025,621796,25781,37.9195744,-122.302519,25,32109640-207a-45b0-ad97-56fe305b49c1,54.92,48.49,74.99,9.67,0,44.19,34.34,65.14,0,50.92,73.19,37.2,52.94,71.96,75.15,68.94,50.7,66.86,71.24,59.17,59,131,31.4,small,272,114,15,119,96,11,2025-03-13T18:52:23.144000Z,CA_El Cerrito_v2025-03-13.1.csv
Healdsburg,CA,California,United States,Pacific,2025,633056,11274,38.6225262,-122.8651327,25,b4fe08fd-7b07-4a1a-9ec0-b1a0f7f5d3dc,62.56,58.56,57.24,0,0,57.9,57.92,0,38.8,55.21,48.59,24.91,45.28,73.5,66.28,0,52.31,60.91,58.45,58.95,59,90.6,32.4,small,278,118,16,124,100,12,2025-03-13T18:52:38.438779Z,CA_Healdsburg_v2025-03-13.1.csv
Arcata,CA,California,United States,Pacific,2025,602476,18578,40.8622905,-124.0749667,25,35a51c24-18b3-436f-8878-51ddd80f1fa6,58.2,54.46,63.32,0,68.29,60.98,34.79,0,53.31,51.11,61.69,57.67,52,67.72,70.79,62.24,57.91,64.58,51.69,58.92,59,179.5,45.5,small,280,120,17,126,102,13,2025-03-13T18:52:31.622074Z,CA_Arcata_v2025-03-13.1.csv
Menomonie,WI,Wisconsin,United States,Midwest,2025,5551025,16548,44.8891998,-91.9095702,25,14ff861a-58a1-452a-8050-0551aa3aa057,63.99,54.7,55.8,34.84,72.59,56.68,47.07,52.51,38.84,25.84,64.08,60.47,50.11,70.14,78.96,27.26,66.31,57.7,0,58.98,59,261.9,58.2,small,277,117,19,123,99,17,2025-03-20T19:02:18.375001Z,WI_Menomonie_v2025-03-20.1.csv
Phillips,WI,Wisconsin,United States,Midwest,2025,5562450,1546,45.6940353,-90.40142,25,e31f2127-a325-4ca6-aeaa-71264b88b9e0,64.28,61.75,53.87,17.84,0,52.81,45.11,0,0,72.57,75.58,83.54,68.15,60.46,66.86,0,17.84,48.01,0,58.95,59,33.7,10.6,small,278,118,20,124,100,18,2025-03-20T19:02:07.745129Z,WI_Phillips_v2025-03-20.1.csv
Rosemère,QC,Quebec,Canada,Canada,2025,,24054,45.639,-73.785,25,a0d5f64c-4a60-402a-9285-7aa78bdf345e,42.27,0,76.27,14.4,0,62.52,33.81,66.73,0,65.87,72.71,72.39,61.32,76.25,77.8,47.58,38.66,57.44,53.44,59.18,59,131.6,21.2,small,271,113,12,23,9,5,2025-04-21T19:31:25.129313Z,CA_Rosemère_v2025-04-21.1.csv
Shrewsbury,,Shropshire,England,England,2025,,78563,52.7061,-2.754494122,30,4f7b2896-7b2b-46c2-8b49-b5abfd07abe0,51.6,0,72.96,38.06,0,65.2,61.57,49.08,33.97,57.05,72.48,74.91,59.08,77.45,75.98,62.29,69.77,69.64,29.36,59.06,59,108.4,332.8,medium,276,75,,52,21,,2025-04-18T22:12:47.368561Z,GB_Shrewsbury_v2025-04-18.1.csv
Mérida,,Yucatán,Mexico,Mexico,2025,,862500,20.9814,-89.6161,25,8b45a1c4-a1ca-472b-a019-8c282a4b8321,59.71,0,74.07,43.28,54.18,63.21,55.66,43.15,67.2,67.97,79.26,38.31,61.25,58.59,79.38,52.55,33.11,58.42,49.35,58.8,59,3616.9,861.1,large,282,87,,5,5,,2025-04-22T07:29:49.057933Z,MX_Mérida_v2025-04-22.1.csv
Saint-Jean sur Richelieu,QC,Quebec,Canada,Canada,2025,,108789,45.3058,-73.2545,25,e7478793-96c3-44ac-aabc-ea0600909754,59.02,0,65.29,41.85,0,60.08,43.69,33.71,46.91,43.72,72.99,60,53.11,70.79,75.5,59.32,42.79,61.66,49.37,58.76,59,621.8,304.7,medium,283,76,13,24,9,5,2025-04-21T19:30:52.415256Z,CA_Saint-Jean sur Richelieu_v2025-04-21.1.csv
City of Durham,,Durham,England,England,2025,,30304,54.7753,1.5849,30,f783c005-36af-4d1c-9b98-f41457019d04,46.07,0,73.65,54.45,74.13,70.84,34.17,60.08,55.64,49.3,46.4,73.83,51.57,68.59,72.3,37.52,57.24,56.36,57.29,58.73,59,95.4,70.2,small,284,121,,53,5,,2025-04-19T15:45:28.657587Z,GB_City of Durham_v2025-04-19.1.csv
Bloomington,IN,Indiana,United States,Midwest,2025,1805860,78791,39.1637003,-86.5242642,25,0eb3dcdb-16c4-44ba-ad24-88af019039ff,56.06,59.33,60.76,8.88,76.9,58.3,50.49,55.6,46.65,47.75,56.88,35.79,49.35,61.85,71.03,73.29,50.51,66.69,56.17,57.65,58,598.2,156.8,medium,298,81,1,134,17,1,2025-03-26T20:39:04.189843Z,IN_Bloomington_v2025-03-26.1.csv
Payson,AZ,Arizona,United States,Mountain,2025,453700,16494,34.2438406,-111.3189641,25,50bb2bc2-0ac5-4d81-8ae1-bacfc9070b5e,63.16,64.12,54.41,36.9,0,56.47,56.28,77.97,56.69,65.12,68.35,38.2,59.72,64.92,48.14,0,0,48.14,0,58.44,58,282.6,26.4,small,286,123,2,129,104,2,2025-03-21T03:48:57.681476Z,AZ_Payson_v2025-03-21.1.csv
Emmaus,PA,Pennsylvania,United States,Mid-Atlantic,2025,4223584,11727,40.5351882,-75.4978825,25,75164977-758d-41b3-913b-5aac0c34388f,69.4,63.36,64.86,0,0,64.11,72.21,78.57,0,50.01,7.92,79.27,41.17,75.09,79.61,10.26,41.68,45.86,0,58.36,58,88.8,18.2,small,288,124,6,130,105,5,2025-03-22T00:58:13.629353Z,PA_Emmaus_v2025-03-22.1.csv
Bloomsburg,PA,Pennsylvania,United States,Mid-Atlantic,2025,4207128,12906,41.0027172,-76.4565798,25,12b6d7cd-6884-4e79-9139-22f28d36fa13,69.98,65.06,41.76,0,79.96,59.31,44.56,56.12,70.27,53.09,61.67,58.07,58.02,60.35,42.07,0,0,42.07,58.57,58.11,58,73.7,17.5,small,293,127,7,133,108,6,2025-03-22T00:58:06.934558Z,PA_Bloomsburg_v2025-03-22.1.csv
Berkley,MI,Michigan,United States,Midwest,2025,2607660,15084,42.4986019,-83.1853423,25,561c0221-0c76-4e86-9b03-a465dd90f067,53.17,68.82,76.1,0,0,63.4,77.35,69.98,70.99,74.54,74.64,31.25,67.47,80.64,76.59,0,59.36,69.96,5.73,57.6,58,104.7,17,small,300,130,14,136,110,14,2025-04-03T20:18:25.873706Z,MI_Berkley_v2025-04-03.1.csv
Sebastopol,CA,California,United States,Pacific,2025,670770,7466,38.400003,-122.8275864,25,d33137ee-8de3-4579-aaf2-733d0bf2df30,64.43,62.07,64.77,0,0,63.42,0,73.85,6.11,44.19,76.79,0,49.57,73.65,71.23,2.81,48.64,41.64,0,58.3,58,57.9,10,small,289,125,18,131,106,14,2025-03-13T18:52:16.777041Z,CA_Sebastopol_v2025-03-13.1.csv
Calistoga,CA,California,United States,Pacific,2025,609892,5159,38.5814083,-122.5826961,25,4831e459-7d26-481a-a013-e35f3ae908b2,60.93,53.1,63.15,0,0,58.13,0,0,0,0,69.28,0,69.28,0,40.84,0,0,40.84,0,58.21,58,42.8,11.3,small,291,126,19,132,107,15,2025-03-13T18:52:47.065885Z,CA_Calistoga_v2025-03-13.1.csv
Sheboygan,WI,Wisconsin,United States,Midwest,2025,5572975,49812,43.7387131,-87.731531,25,0a488cc6-de7b-4a22-bbe1-1be391365f13,67.87,57.4,73.64,0,13.32,53.92,48.85,58.81,33.24,44.12,58.41,40.81,47.44,72.95,74.58,45.11,29.69,53.04,55.3,57.65,58,429.6,84.9,small,298,129,21,134,109,19,2025-03-20T19:02:11.580780Z,WI_Sheboygan_v2025-03-20.1.csv
Monterrey,,Nuevo León,Mexico,Mexico,2025,,1171399,25.6828,-100.3116,25,90615417-ed55-4ded-8081-802604f38f50,55.48,0,76.57,37.18,61.05,65.73,53.36,25.36,60.41,70.38,81.65,58.42,61.5,70.94,78.62,0,21.71,36.88,56.46,58.41,58,3219.1,822.1,large,287,88,,6,6,,2025-04-22T07:30:19.405787Z,MX_Monterrey_v2025-04-22.1.csv
Havering,,Greater London,England,England,2025,,271803,51.5711,0.2098,20,9c542328-30ee-494f-bfe7-0cb09dc0eb1b,42.86,0,74.51,32.68,0,65.21,51.77,45.36,33.14,62.95,77.73,51.74,55.01,74,73.12,46.27,58.43,60.05,51.26,58.27,58,715.2,250.9,medium,290,77,,54,22,,2025-04-18T00:36:21.896803Z,GB_Havering_v2025-04-18.1.csv
Hamilton,,Waikato,New Zealand,New Zealand,2025,,169372,-37.7833,175.2833,31,fb40f473-6e9b-4f74-bdb3-9517c5708385,57.87,0,76.71,48.07,53.93,65.29,63.17,57.3,53.45,60.52,73.64,65.95,63.41,75.05,79.33,53.97,42.87,61.34,21.88,58.16,58,504.5,701,medium,292,78,,2,1,,2025-04-24T23:52:11.531453Z,NZ_Hamilton_v2025-04-24.1.csv
Parry Sound,ON,Ontario,Canada,Canada,2025,,8626,45.3473,-80.0348,30,ffaf3d56-8729-4e44-b01d-a37853770f44,55.37,0,48.78,66.68,0,52.76,0,32.52,34.19,41.5,67.37,75.19,52.95,80.45,76.32,0,32.24,59.37,49.79,57.89,58,14.5,70.9,small,294,128,3,25,10,1,2025-04-21T03:40:42.484762Z,CA_Parry Sound_v2025-04-21.1.csv
Wigan,,Greater Manchester,England,England,2025,,356486,53.5443,-2.6311,30,ac60674b-6fb1-4f42-9fd5-c4e4b95dee32,47.78,0,73.44,48.56,0,67.91,56.88,45.02,31.89,56.05,70.47,61.01,54.63,72.27,73.63,43.72,44.59,55.9,46.41,57.86,58,1173.1,727.1,large,295,89,,55,28,,2025-04-19T15:29:27.109156Z,GB_Wigan_v2025-04-19.1.csv
Canterbury,,Kent,England,England,2025,,170643,51.2802,1.0789,30,21e3ae80-e60a-4374-b7a5-b5d433f26fdc,53.23,0,62.3,60.17,72.19,65.02,48.6,53.46,39.31,57.46,68.19,60.26,54.76,68.69,69.82,26.54,54.92,50.95,52.75,57.8,58,472.9,920.4,medium,296,79,,56,23,,2025-04-19T15:31:47.823941Z,GB_Canterbury_v2025-04-19.1.csv
Aalst,,East Flanders,Belgium,Belgium,2025,,101175,50.9461,4.0503,31,a61e9cd9-9951-4f2d-937e-8bdae32b0da1,52.72,0,68.71,46.84,65.17,64.26,43.9,40.78,53.3,62.41,66.84,64.43,56.13,61.16,69.19,62.58,22.01,55.08,54.9,57.66,58,325.1,349.4,medium,297,80,,12,7,,2025-04-24T21:10:14.920409Z,BE_Aalst_v2025-04-24.1.csv
St. Louis Park,MN,Minnesota,United States,Midwest,2025,2757220,49541,44.9486807,-93.3650354,20,a10e9fb0-fe59-4897-9497-1b8eb13039bd,50.25,48.73,65.06,0,0,56.9,49.98,62.86,46.7,31.88,56.91,60.7,52.14,73.86,75.91,80.94,22.19,64.24,45.67,56.91,57,350.3,98.6,small,309,134,3,141,113,1,2025-03-23T22:34:03.149869Z,MN_St. Louis Park_v2025-03-23.1.csv
West Des Moines,IA,Iowa,United States,Midwest,2025,1983910,69893,41.5499371,-93.7813514,25,82461628-3520-4707-926b-f002b2e8c2bf,53.82,50.51,67.46,34.69,26.43,50.04,61.59,52.19,38.38,43.81,51.27,52.02,50.21,68.17,74.3,81.3,43.5,69.05,0,57.3,57,687.2,309.8,medium,302,82,5,137,18,3,2025-03-26T18:53:55.301713Z,IA_West Des Moines_v2025-03-26.1.csv
Rockford,MI,Michigan,United States,Midwest,2025,2669080,6162,43.136975,-85.5545194,25,55524baa-465a-46ba-8da7-4f94afccae6c,61,63.4,38.91,0,0,51.16,0,0,0,0,37.25,0,37.25,66.86,75.68,74.21,0,74.99,0,56.6,57,57,12.6,small,312,135,15,142,114,15,2025-03-25T22:55:05.420315Z,MI_Rockford_v2025-03-25.1.csv
Chico,CA,California,United States,Pacific,2025,613014,102032,39.7589514,-121.8177197,25,039607f0-a328-4658-9bee-3a14f828fb26,60.12,54.84,61.89,31.78,46.59,53.35,42.28,32.98,45.25,52.76,62.28,53.97,49.75,66.02,71.15,67.92,35.91,61.21,57.19,57.3,57,756.4,138.4,medium,302,82,20,137,18,4,2025-03-13T18:52:32.741487Z,CA_Chico_v2025-03-13.1.csv
Wisconsin Rapids,WI,Wisconsin,United States,Midwest,2025,5588200,18756,44.3929232,-89.8267493,25,f1976f93-0028-4f23-b7df-e02d778efa35,59.37,57.71,65.22,49.01,34.58,54.84,53.28,33.74,41.98,35.55,62.83,50.62,49.28,57.57,71.95,61.92,0,67.27,0,57.01,57,306.8,73,small,306,132,22,139,111,20,2025-03-20T19:02:09.291789Z,WI_Wisconsin Rapids_v2025-03-20.1.csv
Chippewa Falls,WI,Wisconsin,United States,Midwest,2025,5514575,14643,44.934653,-91.389165,25,aa06b757-2ccb-45ea-bae7-8e0f12dc13c1,70.1,64.7,72.08,62.82,0,67.69,17.91,10.51,35.77,63.76,62.61,30.38,38.37,28.91,76.55,88.52,0,82.14,0,56.92,57,222.5,50.9,small,308,133,23,140,112,21,2025-03-20T19:02:08.628781Z,WI_Chippewa Falls_v2025-03-20.1.csv
Leicester,,Leicestershire,England,England,2025,,432656,52.6325,-1.128356471,30,49ecf617-ca5a-4a9c-9e11-345b656a8ff8,40.41,0,75.1,52.72,46.39,62.82,62.77,50.03,47.45,63.91,77.19,62.7,62.14,73.96,75.62,47.4,64.03,62.85,38.7,57.38,57,403.4,849.1,large,301,90,,57,29,,2025-04-18T04:07:52.346556Z,GB_Leicester_v2025-04-18.1.csv
Laval,QC,Quebec,Canada,Canada,2025,,438366,45.6066,-73.7124,25,337bc1d6-5f4a-46c8-a18f-c338a6b70b0d,55.18,0,77.84,41.96,30.71,57.82,44.43,69.66,37.36,71.02,75.35,70.38,59.82,78.65,78.52,45.77,42.51,58.06,32.15,57.13,57,1931.9,594.1,large,304,91,14,26,7,4,2025-04-21T19:30:21.855094Z,CA_Laval_v2025-04-21.1.csv
Sorel-Tracy,QC,Quebec,Canada,Canada,2025,,44135,46.0428,-73.1123,25,91f55373-6733-4ae2-89a6-0756633df752,62.4,0,56.96,43,0,53.86,49.6,36.25,49.6,55.46,68.53,72.29,56.99,72.6,76.38,47.19,41.08,57.34,39.98,57.02,57,270.7,88,small,305,131,15,27,11,6,2025-04-21T18:27:48.130732Z,CA_Sorel-Tracy_v2025-04-21.1.csv
Rome,,Lazio,Italy,Italy,2025,,1970631,41.9028,12.4964,25,8d7750fe-9417-478c-9297-846065911a96,40.57,0,72.76,42.27,48.46,60.59,55.88,39,54.6,71.23,82.54,47.06,60.81,67.74,75,33.68,42.85,52.5,57.33,57,57,2244.6,1845.7,large,307,92,,7,4,,2025-04-22T19:47:29.417159Z,IT_Rome_v2025-04-22.1.csv
Dundee,,Dundee,Scotland,Scotland,2025,,155507,56.462,2.9707,20,77fdef93-62be-4c3e-8764-86ec41a8cce4,50.64,0,75.19,36.66,40.69,58.65,56.96,46.94,45.07,60.96,77.23,58.08,59.22,76.4,78.06,28.21,60.44,56.21,38.59,56.85,57,667,240.9,medium,310,84,,3,1,,2025-04-22T07:26:47.020506Z,GB_Dundee_v2025-04-22.1.csv
